"city","country","pop2026","pop2025","popGrowth","latitude","longitude","isValidCity","slug"
"Delhi","India",35518400,34665600,0.0246,28.652,77.2315,true,
"Mumbai","India",22539300,22089000,0.02039,19.0728,72.8826,true,
"Kolkata","India",16151400,15845200,0.01932,22.5626,88.363,true,
"Bangalore","India",14771700,14395400,0.02614,12.9719,77.5937,true,
"Chennai","India",12623100,12336000,0.02327,13.0878,80.2785,true,
"Hyderabad","India",11608400,11337900,0.02386,17.3841,78.4564,true,
"Ahmedabad","India",9272670,9061820,0.02327,23.0258,72.5873,true,
"Surat","India",8820660,8581730,0.02784,21.1959,72.8302,true,
"Pune","India",7706270,7525720,0.02399,18.5196,73.8553,true,
"Kozhikode","India",4520410,4387410,0.03031,11.248,75.7804,true,
"Jaipur","India",4514920,4411110,0.02353,26.9196,75.7878,true,
"Malappuram","India",4487920,4343910,0.03315,11.042,76.0815,true,
"Lucknow","India",4228750,4132670,0.02325,26.8393,80.9231,true,
"Indore","India",3570830,3482830,0.02527,22.7179,75.8333,true,
"Kanpur","India",3410920,3345370,0.01959,26.4652,80.3497,true,
"Nagpur","India",3237750,3170180,0.02131,21.1463,79.0849,true,
"Coimbatore","India",3234160,3158720,0.02388,11.0056,76.9661,true,
"Thiruvananthapuram","India",3156950,3072530,0.02748,8.4855,76.9492,true,
"Bhopal","India",2748760,2686290,0.02326,23.2547,77.4029,true,
"Patna","India",2748390,2689540,0.02188,25.5941,85.1356,true,
"Navi Mumbai","India",2600000,,,19.0368,73.0158,false,
"Agra","India",2535490,2478340,0.02306,27.1833,78.0167,true,
"Kannur","India",2524680,2465140,0.02415,11.8675,75.3576,true,
"Visakhapatnam","India",2496820,2440420,0.02311,17.6801,83.2016,true,
"Vadodara","India",2478540,2424920,0.02211,22.2994,73.2081,true,
"Vijayawada","India",2409770,2350700,0.02513,16.5075,80.6466,true,
"Nashik","India",2408010,2351140,0.02419,19.9973,73.791,true,
"Kollam","India",2317980,2252170,0.02922,8.88113,76.5847,true,
"Rajkot","India",2203310,2150330,0.02464,22.2916,70.7932,true,
"Ludhiana","India",2071490,2028680,0.0211,30.912,75.8538,true,
"Raipur","India",1974130,1923440,0.02635,30.311,78.0898,true,
"Raipur","India",1974130,1923440,0.02635,26.0426,74.0237,true,
"Raipur","India",1974130,1923440,0.02635,21.2333,81.6333,true,
"Madurai","India",1953270,1911650,0.02177,9.91769,78.119,true,
"Meerut","India",1916080,1874890,0.02197,28.98,77.7064,true,
"Varanasi","India",1865080,1826010,0.0214,25.3167,83.0104,true,
"Tiruppur","India",1833070,1783690,0.02768,11.1154,77.3546,true,
"Srinagar","India",1818570,1777610,0.02304,34.0857,74.8055,true,
"Srinagar","India",1818570,1777610,0.02304,30.2224,78.7834,true,
"Aurangabad","India",1809600,1767330,0.02392,24.752,84.3742,true,
"Aurangabad","India",1809600,1767330,0.02392,19.8776,75.3423,true,
"Jamshedpur","India",1806600,1767760,0.02197,22.8028,86.1854,true,
"Jodhpur","India",1703860,1664420,0.0237,26.2684,73.0059,true,
"Jodhpur","India",1703860,1664420,0.0237,21.9017,70.0327,true,
"Ranchi","India",1659720,1621720,0.02343,23.3432,85.3094,true,
"Kota","India",1639630,1599350,0.02519,25.1825,75.8391,true,
"Kota","India",1639630,1599350,0.02519,24.4464,83.1306,true,
"Kota","India",1639630,1599350,0.02519,22.2951,82.0237,true,
"Jabalpur","India",1615460,1582200,0.02102,23.167,79.9501,true,
"Asansol","India",1598450,1565300,0.02118,23.6833,86.9833,true,
"Gwalior","India",1578940,1543500,0.02296,26.2298,78.1734,true,
"Allahabad","India",1555900,1523670,0.02115,25.4448,81.8432,true,
"Amritsar","India",1543480,1511110,0.02142,31.6223,74.8753,true,
"Dhanbad","India",1471280,1441800,0.02045,23.802,86.4432,true,
"Bareilly","India",1446270,1413250,0.02336,28.3668,79.4317,true,
"Aligarh","India",1413060,1379560,0.02428,27.8815,78.0746,true,
"Moradabad","India",1403580,1369880,0.0246,28.8389,78.7768,true,
"Mysore","India",1375940,1345720,0.02246,12.2979,76.6393,true,
"Tiruchirappalli","India",1296500,1269900,0.02095,10.8155,78.6965,true,
"Chandigarh","India",1293580,1266010,0.02178,30.7363,76.7884,true,
"Pimpri","India",1284606,,,18.6229,73.807,false,
"Saharanpur","India",1275830,1242490,0.02683,29.9679,77.5452,true,
"Kalyan","India",1262255,,,19.2437,73.1355,false,
"Thane","India",1261517,,,19.197,72.9635,false,
"Guwahati","India",1250320,1224170,0.02136,26.1844,91.7458,true,
"Salem","India",1247700,1220710,0.02211,11.6538,78.1554,true,
"Nowrangapur","India",1220946,,,19.2311,82.5483,false,
"Faridabad","India",1220229,,,28.4112,77.3132,false,
"Ghaziabad","India",1199191,,,28.6653,77.4391,false,
"Jalandhar","India",1193480,1167600,0.02217,31.3256,75.5792,true,
"Dombivli","India",1193000,,,19.2167,73.0833,false,
"Solapur","India",1130210,1108180,0.01988,17.6715,75.9104,true,
"Warangal","India",1105740,1080490,0.02337,18,79.5833,true,
"Teni","India",1034724,,,10.0112,77.4777,false,
"Haora","India",1027672,,,22.5769,88.3186,false,
"Shivaji Nagar","India",1000000,,,18.5302,73.8526,false,
"Guntur","India",984920,962403,0.0234,16.2997,80.4573,true,
"Firozabad","India",965089,941758,0.02477,27.1509,78.3978,true,
"Bhiwandi","India",964215,943921,0.0215,19.3002,73.0588,true,
"Puducherry","India",962874,940911,0.02334,11.9338,79.8298,true,
"Cherthala","India",958336,931015,0.02935,9.68444,76.3356,true,
"Kottayam","India",914278,885396,0.03262,9.58692,76.5213,true,
"Nellore","India",879934,858853,0.02455,14.4499,79.987,true,
"Bikaner","India",872688,853869,0.02204,28.0176,73.3149,true,
"Muzaffarnagar","India",858867,836997,0.02613,29.4709,77.7033,true,
"Amravati","India",842613,824965,0.02139,20.9333,77.75,true,
"Hubli","India",840214,,,15.3478,75.1338,false,
"Gorakhpur","India",832937,816586,0.02002,29.4477,75.6721,true,
"Gorakhpur","India",832937,816586,0.02002,26.7663,83.3689,true,
"Cuttack","India",821467,804914,0.02056,20.465,85.8793,true,
"Tirupati","India",818428,797302,0.0265,13.6355,79.4199,true,
"Malegaon","India",817947,799708,0.02281,20.5497,74.5346,true,
"Belgaum","India",817205,799729,0.02185,15.8521,74.5045,true,
"Mangalore","India",795066,778685,0.02104,12.9172,74.856,true,
"Kurnool","India",784461,765324,0.02501,15.8289,78.036,true,
"Bhavnagar","India",783199,766887,0.02127,21.7629,72.1533,true,
"Gulbarga","India",768923,751802,0.02277,17.3358,76.8376,true,
"Jammu","India",766223,751521,0.01956,32.7357,74.8691,true,
"Bhubaneshwar","India",762243,,,20.2724,85.8338,false,
"Durgapur","India",756574,740728,0.02139,23.5158,87.308,true,
"Durgapur","India",756574,740728,0.02139,20.0054,79.3027,true,
"Jhansi","India",722089,706823,0.0216,25.4589,78.5799,true,
"Erode","India",721376,705586,0.02238,11.3428,77.7274,true,
"Jamnagar","India",704603,691018,0.01966,22.4729,70.0667,true,
"Patiala","India",701719,684928,0.02451,30.3363,76.3922,true,
"Bilaspur","India",698982,682488,0.02417,31.3303,76.7566,true,
"Bilaspur","India",698982,682488,0.02417,30.3045,77.3042,true,
"Bilaspur","India",698982,682488,0.02417,28.8866,79.2703,true,
"Bilaspur","India",698982,682488,0.02417,28.3913,77.6242,true,
"Bilaspur","India",698982,682488,0.02417,22.08,82.1554,true,
"Raurkela","India",690942,676909,0.02073,22.225,84.8641,true,
"Agartala","India",687817,670388,0.026,23.8361,91.2794,true,
"Ujjain","India",682864,668371,0.02168,23.1824,75.7764,true,
"Kolhapur","India",682552,669008,0.02024,16.6956,74.2317,true,
"Mathura","India",680262,664568,0.02362,27.5035,77.6721,true,
"Imphal","India",679030,662452,0.02503,24.8081,93.9442,true,
"Ajmer","India",678309,664708,0.02046,26.4521,74.6387,true,
"Hosur","India",668932,646438,0.0348,12.7365,77.8326,true,
"Sangli","India",649082,635803,0.02089,16.8544,74.5642,true,
"Udaipur","India",643855,629951,0.02207,27.723,75.4718,true,
"Udaipur","India",643855,629951,0.02207,24.5858,73.7135,true,
"Udaipur","India",643855,629951,0.02207,23.5333,91.4833,true,
"Jalgaon","India",642970,628788,0.02255,21.0029,75.566,true,
"Jalgaon","India",642970,628788,0.02255,17.7403,73.1909,true,
"Vellore","India",639404,625881,0.02161,12.9184,79.1326,true,
"Gaya","India",637382,623751,0.02185,24.7969,85.0039,true,
"Tirunelveli","India",629329,616444,0.0209,8.72742,77.6838,true,
"Bhilai","India",625138,,,21.2092,81.4285,false,
"Panipat","India",625020,611170,0.02266,29.3875,76.9682,true,
"Borivli","India",609617,,,19.235,72.8598,false,
"Rajahmundry","India",605469,593031,0.02097,17.0052,81.7778,true,
"Begusarai","India",605096,586584,0.03156,25.4185,86.1339,true,
"Cochin","India",604696,,,9.93988,76.2602,false,
"Bellary","India",599562,585914,0.02329,15.142,76.924,true,
"Purnia","India",581955,566482,0.02731,25.7789,87.4742,true,
"Muzaffarpur","India",580553,567318,0.02333,26.1226,85.3905,true,
"Kakinada","India",575776,563735,0.02136,16.9604,82.2381,true,
"Nanded","India",550564,,,19.1602,77.315,false,
"Latur","India",549439,537088,0.023,18.3972,76.5678,true,
"Bhagalpur","India",536667,525429,0.02139,25.2445,86.9718,true,
"Rohtak","India",534040,522082,0.0229,28.8945,76.5892,true,
"Shillong","India",532490,520140,0.02374,25.5689,91.8831,true,
"Raniganj","India",523490,507918,0.03066,23.6164,87.1306,true,
"Anantapur","India",522676,510372,0.02411,14.6778,77.6081,true,
"Dehra Dun","India",522081,,,30.3244,78.0339,false,
"Bhayandar","India",520301,,,19.3016,72.8511,false,
"Bhilwara","India",519048,507328,0.0231,25.3471,74.6408,true,
"Ulhasnagar","India",516584,,,19.2167,73.15,false,
"Shiliguri","India",515574,,,26.71,88.4285,false,
"Bilimora","India",510879,,,20.7696,72.9613,false,
"Yamunanagar","India",506441,495719,0.02163,30.128,77.2837,true,
"Karol Bagh","India",505241,,,28.6514,77.1907,false,
"Alwar","India",492649,481531,0.02309,27.5625,76.625,true,
"Sagar","India",492371,481894,0.02174,14.165,75.029,true,
"Dhulian","India",490720,476915,0.02895,24.6813,87.9535,true,
"Akola","India",490505,481186,0.01937,20.7096,76.9981,true,
"Rampur","India",484287,473662,0.02243,31.4494,77.6309,true,
"Rampur","India",484287,473662,0.02243,29.8062,77.4525,true,
"Rampur","India",484287,473662,0.02243,28.8101,79.027,true,
"Bhatpara","India",483129,,,22.8664,88.4011,false,
"Gandhidham","India",478879,465869,0.02793,23.0833,70.1333,true,
"Ottappalam","India",478032,464748,0.02858,10.7735,76.3776,true,
"Baharampur","India",476182,464829,0.02442,24.1047,88.2515,true,
"Bijapur","India",475590,464807,0.0232,16.8244,75.7154,true,
"Karnal","India",470104,458934,0.02434,29.692,76.9845,true,
"Barddhaman","India",468105,458031,0.02199,23.2557,87.8569,true,
"Korba","India",465712,456114,0.02104,22.3458,82.6963,true,
"Karimnagar","India",461530,450584,0.02429,18.4391,79.1286,true,
"Brahmapur","India",455415,446017,0.02107,19.3115,84.7929,true,
"Junagadh","India",454309,444160,0.02285,21.5197,70.4598,true,
"Ramgundam","India",452261,,,18.8008,79.4521,false,
"Dindigul","India",449246,438664,0.02412,10.369,77.9804,true,
"Shyamnagar","India",441956,,,22.8333,88.3667,false,
"Nangi","India",440894,,,22.5083,88.2153,false,
"Ahmadnagar","India",440670,432248,0.01948,19.0946,74.7384,true,
"Davangere","India",435128,,,14.4669,75.9269,false,
"Anand","India",429770,419844,0.02364,22.5525,72.9552,true,
"Bihar Sharif","India",428280,418625,0.02306,25.2008,85.5239,true,
"Roorkee","India",426951,415859,0.02667,29.8663,77.8912,true,
"Bathinda","India",425092,415294,0.02359,30.2075,74.9389,true,
"Aizawl","India",424478,414881,0.02313,23.7289,92.7179,true,
"Shimoga","India",419532,410755,0.02137,13.9316,75.5679,true,
"Bokaro","India",418533,,,23.7871,85.9564,false,
"Karur","India",416661,405879,0.02656,10.9577,78.0809,true,
"Thoothukudi","India",410760,,,8.76735,78.1342,false,
"Tumkur","India",408050,399268,0.022,13.3414,77.1022,true,
"Ichalkaranji","India",407139,398872,0.02073,16.6912,74.4605,true,
"Dewas","India",405021,396079,0.02258,22.9659,76.0553,true,
"Parbhani","India",402845,394363,0.02151,19.2686,76.7708,true,
"Hisar","India",395351,387141,0.02121,29.1539,75.7229,true,
"Khammam","India",391864,382803,0.02367,17.2477,80.1437,true,
"Haldwani","India",391478,381677,0.02568,29.2225,79.5286,true,
"Darbhanga","India",390728,382707,0.02096,26.1522,85.8971,true,
"Habra","India",390202,382033,0.02138,22.842,88.6561,true,
"Satna","India",389835,381322,0.02232,24.5773,80.8272,true,
"Farrukhabad","India",387804,379548,0.02175,27.3913,79.5793,true,
"Jalna","India",384665,376403,0.02195,19.841,75.8864,true,
"Panihati","India",378705,,,22.6909,88.374,false,
"Arrah","India",378233,369680,0.02314,25.5563,84.6634,true,
"Dhulia","India",366980,,,20.9013,74.7774,false,
"Hapur","India",364613,356615,0.02243,28.7299,77.7807,true,
"Nizamabad","India",364301,357286,0.01963,26.0529,83.0579,true,
"Nizamabad","India",364301,357286,0.01963,18.6715,78.0988,true,
"Kharagpur","India",358954,351911,0.02001,25.1245,86.5558,true,
"Kharagpur","India",358954,351911,0.02001,22.3397,87.325,true,
"Ratlam","India",353657,346299,0.02125,23.3303,75.0403,true,
"Punasa","India",350000,,,22.2351,76.3933,false,
"Kukatpalli","India",341709,,,17.4849,78.4138,false,
"Ambattur","India",341049,,,13.0982,80.1615,false,
"Kamarhati","India",332965,,,22.6711,88.3747,false,
"Chanda","India",328351,,,19.9508,79.2952,false,
"Trichur","India",325110,,,10.5167,76.2167,false,
"Shahjanpur","India",320434,,,27.8817,79.9092,false,
"Kulti","India",305405,,,23.7317,86.8437,false,
"Barasat","India",298127,,,22.7215,88.482,false,
"Bali","India",296973,,,22.6486,88.3411,false,
"Greater Noida","India",293908,,,28.4961,77.536,false,
"Noida","India",293908,,,28.58,77.33,false,
"Lal Bahadur Nagar","India",261987,,,17.3477,78.5576,false,
"Baranagar","India",260072,,,22.6413,88.3773,false,
"Gajuwaka","India",258944,,,17.7,83.2167,false,
"New Delhi","India",257803,302363,0.009841800000000001,28.6358,77.2244,true,
"Etawah","India",257448,,,26.7761,79.0213,false,
"Durg","India",255283,,,21.1915,81.2762,false,
"Naihati","India",253221,,,22.894,88.4152,false,
"Sonipat","India",250521,,,28.9948,77.0194,false,
"Avadi","India",250044,,,13.1147,80.1098,false,
"Tiruvottiyur","India",248059,,,13.1582,80.3018,false,
"Saugor","India",247333,,,23.8388,78.7387,false,
"Mau","India",246050,,,25.9417,83.5611,false,
"Barasat","India",237783,,,22.2252,88.4509,false,
"Ramagundam","India",235000,,,18.755,79.474,false,
"Ganganagar","India",231838,,,29.9201,73.875,false,
"Bharatpur","India",229384,,,27.2173,77.4901,false,
"Shrirampur","India",226317,,,22.7528,88.3422,false,
"Raichur","India",225962,,,16.2055,77.3557,false,
"Quthbullapur","India",225816,,,17.5011,78.4582,false,
"Gosaba","India",222764,,,22.1655,88.8007,false,
"Mirzapur","India",220029,,,25.1449,82.5653,false,
"Tanjore","India",219571,,,10.7852,79.1391,false,
"Amarnath","India",217780,,,19.2,73.1667,false,
"Nagercoil","India",213858,,,8.17899,77.4323,false,
"Pali","India",210103,,,25.7728,73.3233,false,
"Rewa","India",208461,,,24.5326,81.2923,false,
"Secunderabad","India",204182,,,17.5043,78.5426,false,
"Bidar","India",204071,,,17.9133,77.5301,false,
"Monghyr","India",203163,,,25.3746,86.4745,false,
"Burhanpur","India",202695,,,21.3087,76.2303,false,
"Nadiad","India",202067,,,22.6938,72.8616,false,
"Chapra","India",201597,,,25.7803,84.7471,false,
"Panchkula","India",200000,,,30.6946,76.8504,false,
"Sikar","India",199932,,,27.6121,75.14,false,
"Bulandshahr","India",198612,,,28.4039,77.8577,false,
"Hospet","India",197846,,,15.2695,76.3871,false,
"Gurgaon","India",197340,,,28.4601,77.0264,false,
"Sambhal","India",196109,,,28.585,78.5696,false,
"Gandhinagar","India",195985,,,23.2167,72.6833,false,
"Murwara","India",195856,,,23.8378,80.3941,false,
"Nangloi Jat","India",194363,,,28.6796,77.068,false,
"Machilipatnam","India",192827,,,16.1875,81.1389,false,
"Katihar","India",192555,,,25.5385,87.5704,false,
"Bhiwani","India",190855,,,28.793,76.1397,false,
"Kultali","India",187942,,,21.9,88.4,false,
"Raebareli","India",186433,,,26.2309,81.2331,false,
"Haridwar","India",186079,,,29.9479,78.1602,false,
"Singrauli","India",185580,,,24.1997,82.6753,false,
"Sujangarh","India",183808,,,27.7,74.4667,false,
"Ellore","India",183387,,,16.7131,81.1044,false,
"Bhusaval","India",183001,,,21.0436,75.7851,false,
"Khandwa","India",182841,,,21.8243,76.3509,false,
"Bahraigh","India",182218,,,27.5743,81.5947,false,
"Sirsa","India",181639,,,29.5349,75.029,false,
"Chandannagar","India",180623,,,22.8622,88.368,false,
"Surendranagar","India",179628,,,22.7271,71.6486,false,
"Vizianagaram","India",179358,,,18.1169,83.4115,false,
"Proddatur","India",177797,,,14.7502,78.5481,false,
"Hugli","India",177005,,,22.9088,88.3967,false,
"Alleppey","India",176783,,,9.49004,76.3264,false,
"Amroha","India",176253,,,28.9031,78.4698,false,
"Tambaram","India",174787,,,12.9246,80.1271,false,
"Pathankot","India",174306,,,32.2748,75.6529,false,
"Bhind","India",174035,,,26.5667,78.7873,false,
"Shimla","India",173503,,,31.1044,77.1666,false,
"Ongole","India",172872,,,15.5036,80.0445,false,
"Gadag-Betageri","India",172813,,,15.4167,75.6167,false,
"Puri","India",170841,,,19.7983,85.8249,false,
"Haldia","India",170695,,,22.0605,88.1097,false,
"Raiganj","India",170252,,,25.6128,88.1245,false,
"Ingraj Bazar","India",170039,,,25.0045,88.1457,false,
"Jaunpur","India",169572,,,25.7536,82.6869,false,
"Fatehpur","India",166480,,,25.9277,80.8127,false,
"Nandyal","India",165337,,,15.478,78.4836,false,
"Udupi","India",165000,,,13.3347,74.7462,false,
"Loni","India",164810,,,28.7514,77.2902,false,
"Sitapur","India",164435,,,27.5619,80.6826,false,
"Shivpuri","India",164215,,,25.4238,77.6622,false,
"Bhadravati","India",163903,,,13.8485,75.705,false,
"Adoni","India",163631,,,15.6279,77.2749,false,
"Veraval","India",163326,,,20.9077,70.3679,false,
"Sambalpur","India",162887,,,21.4653,83.9757,false,
"Gadag","India",162569,,,15.4298,75.6297,false,
"Unnao","India",161671,,,26.5471,80.4878,false,
"Budaun","India",161555,,,28.0381,79.1267,false,
"Jind","India",161260,,,29.3158,76.315,false,
"Madhyamgram","India",161126,,,22.6894,88.4459,false,
"Jamuria","India",160242,,,23.7047,87.0787,false,
"Jaigaon","India",158664,,,26.8477,89.3756,false,
"Cuddalore","India",158569,,,11.7562,79.7669,false,
"Orai","India",158265,,,25.9902,79.4533,false,
"Hoshiarpur","India",158142,,,31.5372,75.9127,false,
"Pallavaram","India",157145,,,12.968,80.1503,false,
"Hanumangarh","India",155687,,,29.5818,74.3294,false,
"Kanchipuram","India",155029,,,12.8351,79.7001,false,
"Alandur","India",153775,,,13.0025,80.2061,false,
"Guna","India",153689,,,24.6469,77.3113,false,
"Bahadurgarh","India",153613,,,28.6929,76.9355,false,
"Bharuch","India",153528,,,21.6948,72.9805,false,
"Medinipur","India",153349,,,22.4211,87.3226,false,
"Fyzabad","India",153047,,,26.7755,82.1502,false,
"Dinapore","India",152940,,,25.6371,85.0479,false,
"Silchar","India",152393,,,24.8273,92.7979,false,
"Banda","India",152218,,,25.4776,80.3349,false,
"Morena","India",152004,,,26.4989,77.9953,false,
"Tonk","India",151331,,,26.1664,75.7882,false,
"Raj-Nandgaon","India",150755,,,21.0969,81.0289,false,
"Serilingampalle","India",150525,,,17.4931,78.302,false,
"Virar","India",150357,,,19.4559,72.8114,false,
"Malkajgiri","India",150000,,,17.4478,78.5263,false,
"Shantipur","India",149983,,,23.2472,88.433,false,
"Barakpur","India",148174,,,22.766,88.3634,false,
"Ambala","India",146787,,,30.361,76.7978,false,
"Krishnanagar","India",145926,,,23.4058,88.4907,false,
"Saharsa","India",145764,,,25.875,86.5961,false,
"Batala","India",145468,,,31.8092,75.2029,false,
"Bhimavaram","India",142967,,,16.5408,81.5232,false,
"Balurghat","India",141404,,,25.221,88.7773,false,
"Kaithal","India",140604,,,29.8015,76.3996,false,
"Lakhimpur","India",140223,,,27.9482,80.7794,false,
"Hazaribagh","India",140063,,,23.9924,85.3616,false,
"Vidisha","India",140045,,,23.526,77.8109,false,
"Kumbakonam","India",139264,,,10.9621,79.3912,false,
"Porbandar","India",138872,,,21.6422,69.6093,false,
"Chitradurga","India",138587,,,14.2226,76.4004,false,
"Thanesar","India",138279,,,29.9732,76.8321,false,
"Tiruvannamalai","India",138243,,,12.2266,79.0746,false,
"Kanchrapara","India",136954,,,22.96,88.4285,false,
"Mahbubnagar","India",136135,,,16.7439,77.986,false,
"Dimapur","India",135860,,,25.9117,93.7217,false,
"Robertsonpet","India",135218,,,12.9563,78.2754,false,
"Chhindwara","India",134847,,,22.057,78.9396,false,
"Mandya","India",134845,,,12.5223,76.8975,false,
"Bankura","India",133966,,,23.2324,87.0716,false,
"Hajipur","India",133606,,,25.6854,85.2098,false,
"Gonda City","India",133583,,,27.1318,81.9533,false,
"Bhuj","India",133459,,,23.254,69.6693,false,
"Hindupur","India",133298,,,13.8281,77.4914,false,
"Palghat","India",132728,,,10.7732,76.6537,false,
"Godhra","India",131913,,,22.7755,73.6149,false,
"Kishangarh","India",131749,,,26.5901,74.854,false,
"Pilibhit","India",131008,,,28.6312,79.8044,false,
"Beawar","India",130777,,,26.1012,74.3203,false,
"Abohar","India",130603,,,30.1445,74.1955,false,
"Moga","India",130549,,,30.8138,75.1688,false,
"Dehri","India",129938,,,24.9025,84.1822,false,
"Deoria","India",129570,,,26.5017,83.7794,false,
"Hassan","India",128531,,,13.0071,76.0962,false,
"Khardah","India",128346,,,22.7186,88.3781,false,
"Yavatmal","India",128175,,,20.3932,78.132,false,
"Halisahar","India",128172,,,22.9322,88.4186,false,
"Panvel","India",128046,,,18.9888,73.1101,false,
"Titagarh","India",127751,,,22.7425,88.3733,false,
"Cuddapah","India",127010,,,14.4799,78.8235,false,
"Bettiah","India",127008,,,26.8023,84.5031,false,
"Hathras","India",126882,,,27.5955,78.052,false,
"Lalitpur","India",126475,,,24.6901,78.4192,false,
"Kolar","India",126441,,,13.1377,78.13,false,
"Mandsaur","India",124988,,,24.0718,75.0699,false,
"Gondia","India",124897,,,21.4603,80.192,false,
"Rajapalaiyam","India",124168,,,9.45296,77.5534,false,
"Darjiling","India",123797,,,27.0333,88.2667,false,
"Mohali","India",123484,,,30.68,76.7221,false,
"Palanpur","India",123294,,,24.1713,72.4383,false,
"Dam Dam","India",122719,,,22.6334,88.4229,false,
"Hardoi","India",122635,,,27.3949,80.1317,false,
"Puruliya","India",122533,,,23.3306,86.363,false,
"Dibrugarh","India",122155,,,27.4799,94.9084,false,
"Palwal","India",121965,,,28.1447,77.3255,false,
"Nalgonda","India",121826,,,17.0544,79.2671,false,
"Bhadreswar","India",121662,,,22.8245,88.3384,false,
"Vejalpur","India",121610,,,22.6902,73.563,false,
"Chikmagalur","India",121484,,,13.3223,75.774,false,
"Raigarh","India",121278,,,21.8976,83.3966,false,
"Guntakal Junction","India",120964,,,15.1711,77.3624,false,
"Gangapur","India",120115,,,26.4725,76.7174,false,
"Deoli","India",120000,,,28.5025,77.2312,false,
"Siwan","India",119181,,,26.221,84.3561,false,
"Damoh","India",118776,,,23.8331,79.4419,false,
"Adilabad","India",118526,,,19.672,78.5359,false,
"Chicacole","India",118299,,,18.2989,83.8975,false,
"Uppal Kalan","India",118259,,,17.4058,78.5591,false,
"Jetpur","India",118068,,,21.7548,70.6235,false,
"Morbi","India",118022,,,22.8173,70.8377,false,
"Patan","India",117863,,,23.8507,72.1296,false,
"Khanna","India",117137,,,30.7055,76.222,false,
"Botad","India",117053,,,22.1692,71.6667,false,
"Rishra","India",117014,,,22.7239,88.3456,false,
"Azamgarh","India",116644,,,26.0683,83.1836,false,
"Yelahanka","India",116447,,,13.1007,77.5963,false,
"Gudivada","India",116161,,,16.4355,80.9956,false,
"Baidyabati","India",115504,,,22.785,88.3259,false,
"Basti","India",115115,,,26.7882,82.7162,false,
"Balasore","India",114321,,,21.4927,86.9335,false,
"Dharmavaram","India",114050,,,14.4143,77.7204,false,
"Maler Kotla","India",113840,,,30.5309,75.8795,false,
"Wardha","India",113759,,,20.7393,78.5978,false,
"Jhunjhunun","India",113193,,,28.1256,75.398,false,
"Satara","India",112793,,,17.6859,73.9933,false,
"Chanduasi","India",112635,,,28.4518,78.7828,false,
"Mothihari","India",112144,,,26.6486,84.9166,false,
"Chas","India",112141,,,23.6356,86.1671,false,
"Pudukkottai","India",112118,,,10.3813,78.8214,false,
"Rewari","India",112079,,,28.199,76.6183,false,
"Port Blair","India",112050,,,11.6661,92.7464,false,
"Suriapet","India",111729,,,17.1405,79.6205,false,
"Bangaon","India",111693,,,23.0455,88.8308,false,
"Chhatarpur","India",111594,,,24.9177,79.5887,false,
"Ashoknagar Kalyangarh","India",111475,,,22.8642,88.637,false,
"Achalpur","India",111278,,,21.2567,77.5101,false,
"Navadwip","India",111123,,,23.4067,88.3686,false,
"Barsi","India",110983,,,18.2345,75.6927,false,
"Sultanpur","India",110368,,,26.2579,82.0727,false,
"Ambur","India",109873,,,12.7916,78.7164,false,
"Hoshangabad","India",109358,,,22.7475,77.7274,false,
"Sawai Madhopur","India",108612,,,26.023,76.3441,false,
"Madanapalle","India",108593,,,13.5503,78.5029,false,
"Bansbaria","India",108474,,,22.9539,88.401,false,
"Tadepallegudem","India",108167,,,16.8147,81.5272,false,
"Jalpaiguri","India",107832,,,26.5167,88.7333,false,
"Chittaurgarh","India",106710,,,24.8896,74.624,false,
"Gangawati","India",106250,,,15.4313,76.5293,false,
"Khurja","India",105909,,,28.2538,77.8553,false,
"Ponnani","India",105512,,,10.7669,75.9252,false,
"Barnala","India",105016,,,30.3745,75.5487,false,
"Badlapur","India",104636,,,19.1552,73.2655,false,
"Soyibug","India",104000,,,34.0768,74.7057,false,
"Bagaha","India",103855,,,27.0992,84.09,false,
"Churu","India",103533,,,28.3041,74.9672,false,
"Nagda","India",103501,,,23.4583,75.4176,false,
"Kashipur","India",103138,,,29.214,78.9569,false,
"Ghazipur","India",103095,,,25.5833,83.5853,false,
"Dhaulpur","India",102462,,,26.6929,77.8797,false,
"Mormugao","India",102345,,,15.3891,73.8149,false,
"Ferozepore","India",102130,,,30.9257,74.6131,false,
"Gondal","India",101801,,,21.9607,70.8026,false,
"Seoni","India",101379,,,22.085,79.5504,false,
"Jagadhri","India",101300,,,30.1672,77.3037,false,
"Mirialguda","India",101234,,,16.8722,79.5625,false,
"Udgir","India",101064,,,18.3926,77.1176,false,
"Jamalpur","India",100780,,,25.3126,86.4889,false,
"Nandurbar","India",100703,,,21.3667,74.2405,false,
"Itarsi","India",100574,,,22.6148,77.7622,false,
"Vasco da Gama","India",100485,,,15.3959,73.8157,false,
"Phagwara","India",100146,,,31.2245,75.7739,false,
"Airoli","India",100000,,,19.151,72.9962,false,
"Amreli","India",99742,,,21.5998,71.2117,false,
"Shikohabad","India",99678,,,27.108,78.5866,false,
"Kasganj","India",99462,,,27.8088,78.6458,false,
"Sehore","India",99284,,,23.2,77.0833,false,
"Ranibennur","India",99105,,,14.6224,75.6295,false,
"Jagtial","India",99035,,,18.7947,78.9166,false,
"Bhadrakh","India",98648,,,21.0545,86.5156,false,
"Bundi","India",98569,,,25.4386,75.6374,false,
"Ooty","India",98238,,,11.4134,76.6952,false,
"Mughal Sarai","India",98043,,,25.2831,83.1197,false,
"Shamli","India",97966,,,29.4497,77.3096,false,
"Hinganghat","India",97568,,,20.5487,78.8398,false,
"Villupuram","India",97380,,,11.9397,79.4924,false,
"Amalner","India",97369,,,21.0398,75.0589,false,
"Bagalkot","India",97269,,,16.1867,75.6961,false,
"Tellicherry","India",97201,,,11.7481,75.4929,false,
"Narasaraopet","India",97194,,,16.2349,80.0493,false,
"Nagaur","India",96847,,,27.202,73.7339,false,
"Nawada","India",96730,,,24.8867,85.5436,false,
"Jahanabad","India",96387,,,25.2137,84.9871,false,
"Chalisgaon","India",96381,,,20.4578,75.016,false,
"Buxar","India",96120,,,25.5755,83.9804,false,
"Sahibganj","India",95890,,,25.2442,87.6348,false,
"Pandharpur","India",95665,,,17.6792,75.331,false,
"Hindaun","India",95593,,,26.7341,77.0352,false,
"Khargone","India",94985,,,21.8229,75.6139,false,
"Parli Vaijnath","India",94863,,,18.8506,76.5316,false,
"Kishanganj","India",94807,,,26.1022,87.9553,false,
"Mainpuri","India",94619,,,27.2286,79.0288,false,
"Khamgaon","India",94604,,,20.7074,76.5683,false,
"Negapatam","India",94238,,,10.7638,79.8431,false,
"Chilakalurupet","India",94011,,,16.0899,80.1671,false,
"Gudiyatham","India",93973,,,12.946,78.8738,false,
"Makrana","India",93904,,,27.0436,74.7244,false,
"Banswara","India",93648,,,23.5411,74.4425,false,
"Baraut","India",93544,,,29.102,77.2633,false,
"Closepet","India",93528,,,12.7218,77.2815,false,
"Kalyani","India",93184,,,22.9833,88.4833,false,
"Tadpatri","India",93044,,,14.9083,78.0103,false,
"Kapurthala","India",92667,,,31.3801,75.3811,false,
"Disa","India",92224,,,24.2561,72.1793,false,
"Ballalpur","India",92146,,,19.847,79.3458,false,
"Kohima","India",92113,,,25.6747,94.111,false,
"Betul","India",91953,,,21.9006,77.9023,false,
"Karaikkudi","India",91908,,,10.0661,78.7678,false,
"Bagaha","India",91383,,,24.529,85.0602,false,
"Balangir","India",91241,,,20.7042,83.4903,false,
"Datia","India",90628,,,25.6731,78.4591,false,
"Valparai","India",90353,,,10.3269,76.9512,false,
"Kovilpatti","India",90296,,,9.17167,77.8699,false,
"Vaniyambadi","India",90288,,,12.6816,78.6201,false,
"Bhandara","India",90183,,,21.1682,79.6488,false,
"Roha","India",90000,,,18.4369,73.1196,false,
"Muktsar","India",89833,,,30.4743,74.5166,false,
"Luckeesarai","India",89500,,,25.1765,86.0947,false,
"Barmer","India",89487,,,25.7457,71.3921,false,
"Muradnagar","India",89482,,,28.7807,77.4986,false,
"Tinsukia","India",89373,,,27.489,95.3599,false,
"Shahdol","India",89289,,,23.2936,81.3619,false,
"Manjeri","India",89201,,,11.1202,76.12,false,
"Mahoba","India",89170,,,25.2905,79.8753,false,
"Contai","India",88702,,,21.7799,87.7489,false,
"Sangrur","India",88615,,,30.2451,75.8449,false,
"Pollachi","India",88214,,,10.6582,77.0085,false,
"Deoband","India",88171,,,29.695,77.6796,false,
"Neyyattinkara","India",88104,,,8.39854,77.0859,false,
"Tanda","India",88073,,,26.5495,82.6584,false,
"Baran","India",87478,,,25.1,76.5167,false,
"Dhamtari","India",87151,,,20.7072,81.5487,false,
"Tiruchengode","India",87123,,,11.3802,77.8944,false,
"Chirala","India",87001,,,15.8238,80.3522,false,
"Jharia","India",86938,,,23.7408,86.4146,false,
"Akot","India",86917,,,21.0963,77.0588,false,
"Rajpura","India",86820,,,30.4786,76.5928,false,
"Madgaon","India",86818,,,15.275,73.9579,false,
"Sardarshahr","India",86672,,,28.4406,74.491,false,
"Mayiladuthurai","India",86660,,,11.1035,79.655,false,
"Kamthi","India",86213,,,21.2162,79.1973,false,
"Paradip Garh","India",85868,,,20.3164,86.6085,false,
"Paramagudi","India",85695,,,9.54633,78.5907,false,
"Osmanabad","India",85521,,,18.1816,76.0389,false,
"Aruppukkottai","India",85369,,,9.5096,78.0959,false,
"Baruni","India",84888,,,25.4751,85.9681,false,
"Bijnor","India",84593,,,29.373,78.1364,false,
"Anakapalle","India",84357,,,17.6913,83.004,false,
"Najibabad","India",84006,,,29.6119,78.3427,false,
"Dohad","India",83966,,,22.8328,74.2599,false,
"Ramgarh","India",83833,,,23.6303,85.5216,false,
"Kavali","India",83352,,,14.9163,79.9945,false,
"Fatehpur","India",83170,,,27.9949,74.9563,false,
"Jangipur","India",82548,,,24.47,88.0766,false,
"Dhar","India",82438,,,22.5937,75.2977,false,
"Hansi","India",82407,,,29.1024,75.9625,false,
"Kadiri","India",81498,,,14.1117,78.1598,false,
"Dhoraji","India",81445,,,21.7336,70.45,false,
"Rayachoti","India",81433,,,14.0572,78.7506,false,
"Khambhat","India",81328,,,22.3174,72.6192,false,
"Nirmal","India",80982,,,19.0968,78.3441,false,
"Emmiganur","India",80933,,,15.772,77.4835,false,
"Jeypore","India",80837,,,18.8563,82.5716,false,
"Kotkapura","India",80741,,,30.5819,74.833,false,
"Udhampur","India",80447,,,32.9243,75.1357,false,
"Kairana","India",80432,,,29.3954,77.2054,false,
"Balaghat","India",80360,,,21.8156,80.1885,false,
"Mansa","India",80018,,,29.9884,75.4017,false,
"Anantnag","India",79821,,,33.7307,75.1542,false,
"Karaikal","India",79653,,,10.9167,79.8333,false,
"Jharsugra","India",79492,,,21.8624,84.0178,false,
"Brajarajnagar","India",79421,,,21.8167,83.9167,false,
"Kottagudem","India",79247,,,17.5511,80.6178,false,
"Nawabganj","India",79246,,,26.9313,81.1984,false,
"Arakkonam","India",79080,,,13.0845,79.6705,false,
"Koch Bihar","India",78737,,,26.3254,89.4451,false,
"Dod Ballapur","India",78676,,,13.2945,77.5378,false,
"Bhadohi","India",78568,,,25.3953,82.5703,false,
"Katoya","India",78408,,,23.6456,88.1326,false,
"Jamui","India",78181,,,24.9261,86.2253,false,
"Harihar","India",78034,,,14.5129,75.8072,false,
"Mancheral","India",77998,,,18.8707,79.4286,false,
"Kadayanallur","India",77772,,,9.07277,77.3415,false,
"Daltonganj","India",77704,,,24.0397,84.0658,false,
"Faridkot","India",77450,,,30.674,74.7558,false,
"Balrampur","India",77396,,,27.4295,82.1854,false,
"Baramula","India",77276,,,34.209,74.3428,false,
"Mawana","India",76973,,,29.1029,77.922,false,
"Kundla","India",76809,,,21.3422,71.3063,false,
"Manmad","India",76722,,,20.2533,74.4376,false,
"Kannauj","India",76714,,,27.0552,79.9188,false,
"Malaut","India",76616,,,30.2112,74.4818,false,
"Nagina","India",76593,,,29.4443,78.4365,false,
"Badagara","India",76493,,,11.5978,75.5814,false,
"Jagdalpur","India",76465,,,19.0814,82.0213,false,
"Jumri Tilaiya","India",76341,,,24.4349,85.5295,false,
"Baj Baj","India",76159,,,22.4751,88.1777,false,
"Konnagar","India",76082,,,22.7051,88.3445,false,
"Ratnagiri","India",75986,,,16.9915,73.3102,false,
"Hingoli","India",75878,,,19.7146,77.1424,false,
"Bodinayakkanur","India",75680,,,10.0117,77.3498,false,
"Khadki","India",75654,,,18.5635,73.8521,false,
"Dhrangadhra","India",75578,,,22.9917,71.4679,false,
"Paloncha","India",75224,,,17.6018,80.7051,false,
"Gudur","India",74851,,,14.1509,79.8521,false,
"Ankleshwar","India",74742,,,21.6324,72.99,false,
"Tikamgarh","India",74724,,,24.7433,78.8306,false,
"Srivilliputhur","India",74370,,,9.51272,77.6337,false,
"Sivakasi","India",74282,,,9.44999,77.798,false,
"Pilkhua","India",74212,,,28.7127,77.656,false,
"Ambajogai","India",74114,,,18.7331,76.3862,false,
"Bela","India",73992,,,25.9206,81.9963,false,
"Bodhan","India",73938,,,18.6621,77.8858,false,
"Rabkavi","India",73835,,,16.4757,75.1106,false,
"Karauli","India",73717,,,26.4983,77.0275,false,
"Savarkundla","India",73695,,,21.3373,71.3035,false,
"Shahabad","India",73606,,,27.6431,79.9402,false,
"Chandpur","India",73555,,,29.1349,78.2719,false,
"Gokak","India",73478,,,16.169,74.8239,false,
"Sikandarabad","India",73379,,,28.4523,77.7,false,
"Virudunagar","India",73273,,,9.58509,77.9579,false,
"Dausa","India",73034,,,26.89,76.3358,false,
"Valsad","India",72929,,,20.6101,72.9343,false,
"Ambikapur","India",72821,,,23.1189,83.1954,false,
"Palghar","India",72335,,,19.6969,72.7654,false,
"Dharapuram","India",72291,,,10.7383,77.5322,false,
"Chintamani","India",71798,,,13.4005,78.0517,false,
"Faridpur","India",71783,,,28.21,79.5415,false,
"Pusad","India",71588,,,19.9127,77.5784,false,
"Madhubani","India",71582,,,26.3537,86.0717,false,
"Sirsilla","India",71499,,,18.3887,78.8105,false,
"Vapi","India",71395,,,20.3717,72.9049,false,
"Kamareddi","India",71042,,,18.32,78.3418,false,
"Bolpur","India",70998,,,23.6628,87.697,false,
"Ranaghat","India",70984,,,23.1762,88.5667,false,
"Fazilka","India",70887,,,30.4021,74.0284,false,
"Beypore","India",70751,,,11.1715,75.8061,false,
"Dadri","India",70609,,,28.5526,77.554,false,
"Auraiya","India",70508,,,26.4652,79.5092,false,
"Bapatla","India",70117,,,15.9042,80.4674,false,
"Payyannur","India",70069,,,12.0935,75.2025,false,
"Talipparamba","India",69878,,,12.0416,75.3593,false,
"Tindivanam","India",69839,,,12.234,79.6555,false,
"Shirpur","India",69540,,,21.3482,74.8803,false,
"Basoda","India",69278,,,23.8515,77.9365,false,
"Jorhat","India",69033,,,26.7575,94.2031,false,
"Sindhnur","India",68793,,,15.7698,76.7558,false,
"Bargarh","India",68670,,,21.3335,83.619,false,
"Washim","India",68622,,,20.1113,77.133,false,
"Visnagar","India",68619,,,23.6985,72.5521,false,
"Palwancha","India",68561,,,17.5815,80.6765,false,
"Keshod","India",68518,,,21.3033,70.2486,false,
"Kannangad","India",68450,,,12.3081,75.1063,false,
"Bisalpur","India",68355,,,28.2925,79.8047,false,
"Tanuku","India",68290,,,16.7544,81.6814,false,
"Attili","India",68196,,,16.7,81.6,false,
"Balotra","India",68120,,,25.8324,72.24,false,
"Pithampur","India",68051,,,22.602,75.6965,false,
"Munnar","India",68000,,,10.0882,77.0624,false,
"Chamrajnagar","India",67992,,,11.9231,76.9395,false,
"Pattukkottai","India",67982,,,10.4236,79.3195,false,
"Jaisalmer","India",67604,,,26.9176,70.9039,false,
"Araria","India",67474,,,26.1493,87.5132,false,
"Harda Khas","India",67387,,,22.3441,77.0954,false,
"Sangamner","India",67309,,,19.5678,74.2115,false,
"Jaora","India",67203,,,23.6378,75.1271,false,
"Buldana","India",66991,,,20.5293,76.1846,false,
"Mettupalayam","India",66944,,,11.2997,76.9349,false,
"Anjar","India",66888,,,23.1132,70.0267,false,
"Bellampalli","India",66660,,,19.0558,79.493,false,
"Channapatna","India",66647,,,12.6514,77.2067,false,
"Ratangarh","India",66625,,,28.0814,74.6185,false,
"Krishnagiri","India",66419,,,12.5192,78.2138,false,
"Rishikesh","India",66390,,,30.1078,78.2925,false,
"Goyerkata","India",66358,,,26.6998,89.0257,false,
"Chaibasa","India",66252,,,22.5504,85.8025,false,
"Mandamarri","India",66176,,,18.9651,79.4747,false,
"Palani","India",66085,,,10.4503,77.5209,false,
"Narnaul","India",66049,,,28.0444,76.1083,false,
"Dharmapuri","India",66017,,,12.1277,78.1579,false,
"Fatehabad","India",66013,,,29.5152,75.4555,false,
"Palasa","India",65833,,,18.7726,84.4101,false,
"Basavakalyan","India",65805,,,17.8745,76.9497,false,
"Chingleput","India",65689,,,12.6918,79.9766,false,
"Chopda","India",65598,,,21.2458,75.2995,false,
"Panaji","India",65586,,,15.4957,73.8262,false,
"Thenkasi","India",65496,,,8.96003,77.3152,false,
"Yadgir","India",65376,,,16.7701,77.1376,false,
"Gangarampur","India",65316,,,25.4014,88.5298,false,
"Ramanathapuram","India",65314,,,9.37158,78.8308,false,
"Jagraon","India",65305,,,30.7878,75.4739,false,
"Alipur Duar","India",65232,,,26.4835,89.5229,false,
"Kopargaon","India",65116,,,19.8824,74.4761,false,
"Bongaigaon","India",64902,,,26.477,90.5582,false,
"Malkapur","India",64812,,,20.8855,76.1993,false,
"Karanja","India",64734,,,20.4827,77.4886,false,
"Khatauli","India",64731,,,29.2784,77.733,false,
"Ashoknagar","India",64722,,,24.5758,77.7312,false,
"Siuri","India",64659,,,23.9081,87.5277,false,
"Nabha","India",64640,,,30.3758,76.1529,false,
"Siddipet","India",64562,,,18.1048,78.8486,false,
"Bhawanipatna","India",64468,,,19.9072,83.167,false,
"Khopoli","India",64460,,,18.7856,73.3459,false,
"Karwar","India",64457,,,14.8136,74.1297,false,
"Kayankulam","India",64183,,,9.18173,76.5009,false,
"Chinnachowk","India",64053,,,14.4752,78.8354,false,
"Bishnupur","India",64041,,,23.0738,87.3199,false,
"Markapur","India",63982,,,15.7353,79.2685,false,
"Basmat","India",63972,,,19.3287,77.1575,false,
"Baheri","India",63953,,,28.7742,79.4974,false,
"Kunnamkulam","India",63903,,,10.6467,76.0669,false,
"Raghogarh","India",63873,,,24.4432,77.1977,false,
"Gopalganj","India",63725,,,26.4673,84.4404,false,
"Tura","India",63645,,,25.5142,90.2024,false,
"Rajsamand","India",63414,,,25.0714,73.8798,false,
"Tandur","India",63239,,,17.2485,77.577,false,
"Kalamassery","India",63176,,,10.0614,76.3263,false,
"Suratgarh","India",63153,,,29.3215,73.8998,false,
"Mannargudi","India",63148,,,10.6663,79.4506,false,
"Sopur","India",63035,,,34.2867,74.4723,false,
"Arni","India",62858,,,12.6677,79.2853,false,
"Dhuburi","India",62525,,,26.0186,89.9856,false,
"Puliyangudi","India",62494,,,9.17489,77.398,false,
"Sheopur","India",62416,,,25.6647,76.6962,false,
"Renukut","India",62413,,,24.2164,83.0358,false,
"Dhenkanal","India",62230,,,20.6574,85.5969,false,
"Dabwali","India",62113,,,29.9491,74.7383,false,
"Sibsagar","India",62104,,,26.9843,94.6378,false,
"Rath","India",61728,,,25.5947,79.5666,false,
"Jamkhandi","India",61690,,,16.5046,75.2915,false,
"Sirsi","India",61607,,,14.6207,74.8355,false,
"Vriddhachalam","India",61498,,,11.5183,79.3241,false,
"Vinukonda","India",61326,,,16.0531,79.7396,false,
"Tiptur","India",60957,,,13.2563,76.4777,false,
"Sahaswan","India",60953,,,28.0723,78.7508,false,
"Koppal","India",60868,,,15.3452,76.1548,false,
"Sirhind","India",60847,,,30.6432,76.3842,false,
"Dabra","India",60836,,,25.8857,78.3322,false,
"Cumbum","India",60828,,,9.73647,77.2847,false,
"Arambagh","India",60639,,,22.8833,87.7833,false,
"Himatnagar","India",60634,,,23.5989,72.966,false,
"Ladnun","India",60490,,,27.6531,74.3999,false,
"Nipani","India",60351,,,16.399,74.3829,false,
"Borsad","India",60271,,,22.4079,72.8982,false,
"Koratla","India",60231,,,18.8215,78.7119,false,
"Kiratpur","India",60223,,,29.5067,78.2061,false,
"Vrindavan","India",60195,,,27.5811,77.6966,false,
"Haveri","India",60155,,,14.7935,75.4045,false,
"Supaul","India",60020,,,26.1153,86.5951,false,
"Giridih","India",60000,,,24.1862,86.3087,false,
"Bangaon","India",60000,,,25.8673,86.5115,false,
"Rayadrug","India",59968,,,14.6997,76.8524,false,
"North Lakhimpur","India",59841,,,27.2352,94.1036,false,
"Tohana","India",59749,,,29.7133,75.9044,false,
"Gangoh","India",59519,,,29.78,77.2635,false,
"Mangalagiri","India",59391,,,16.4308,80.5682,false,
"Narasapur","India",59306,,,16.4342,81.6984,false,
"Sangareddi","India",59199,,,17.6248,78.0867,false,
"Kodar","India",59170,,,16.9985,79.9656,false,
"Ullal","India",59116,,,12.8057,74.8606,false,
"Mangrol","India",58989,,,21.1227,70.1148,false,
"Gola Gokarannath","India",58986,,,28.0784,80.4705,false,
"Modasa","India",58970,,,23.4625,73.2986,false,
"Tezpur","India",58851,,,26.6333,92.8,false,
"Thiruvarur","India",58777,,,10.7727,79.6368,false,
"Attur","India",58702,,,11.5941,78.6014,false,
"Chidambaram","India",58650,,,11.3993,79.6914,false,
"Tarn Taran","India",58585,,,31.4519,74.9278,false,
"Udumalaippettai","India",58571,,,10.5881,77.2478,false,
"Lonavla","India",58562,,,18.7528,73.4057,false,
"Shahada","India",58402,,,21.5454,74.4711,false,
"Nawalgarh","India",58346,,,27.8516,75.2738,false,
"Nedumangad","India",58278,,,8.60267,77.0014,false,
"Nimbahera","India",58085,,,24.6217,74.68,false,
"Kadi","India",58066,,,23.2991,72.3336,false,
"Sira","India",57928,,,13.7416,76.9043,false,
"Chik Ballapur","India",57831,,,13.4351,77.7279,false,
"Bardoli","India",57810,,,21.123,73.1115,false,
"Jhargram","India",57796,,,22.4538,86.995,false,
"Samastipur","India",57575,,,25.8622,85.7795,false,
"Gobichettipalayam","India",57527,,,11.455,77.4422,false,
"Hasanpur","India",57481,,,28.7225,78.2844,false,
"Jahangirabad","India",57363,,,28.4055,78.1059,false,
"Sherkot","India",57361,,,29.327,78.5743,false,
"Katras","India",57349,,,23.7975,86.2983,false,
"Palakollu","India",57341,,,16.5167,81.73,false,
"Wani","India",57288,,,20.0551,78.9531,false,
"Naksalbari","India",57283,,,26.6827,88.22,false,
"Tiruvalla","India",57223,,,9.3816,76.5749,false,
"Ponnuru","India",57170,,,16.0655,80.552,false,
"Diphu","India",57097,,,25.8434,93.4312,false,
"Sitamarhi","India",57095,,,26.5936,85.4906,false,
"Chhibramau","India",57071,,,27.1487,79.5008,false,
"Tilhar","India",57043,,,27.9628,79.7383,false,
"Ilkal","India",56937,,,15.9592,76.1135,false,
"Bada Barabil","India",56870,,,22.1119,85.3868,false,
"Mettur","India",56743,,,11.788,77.8008,false,
"Kuchaman","India",56725,,,27.1474,74.8566,false,
"Panruti","India",56586,,,11.7766,79.5527,false,
"Una","India",56545,,,20.8232,71.0379,false,
"Ponnur","India",56504,,,16.0711,80.5494,false,
"Kollegal","India",56497,,,12.1545,77.1105,false,
"Shegaon","India",56449,,,20.7932,76.6992,false,
"Upleta","India",56354,,,21.7402,70.2826,false,
"Ujhani","India",56309,,,28.0031,79.0082,false,
"Bankra","India",56273,,,22.6029,88.2775,false,
"Dabhoi","India",56253,,,22.1833,73.4333,false,
"Bari","India",56136,,,26.6466,77.6163,false,
"Obra","India",56110,,,24.4186,82.988,false,
"Gohana","India",56093,,,29.1378,76.7025,false,
"Jatani","India",56003,,,20.1597,85.7074,false,
"Namakkal","India",55997,,,11.2213,78.1652,false,
"Gadwal","India",55952,,,16.235,77.7956,false,
"Palitana","India",55913,,,21.5252,71.8231,false,
"Nokha","India",55911,,,27.5616,73.4714,false,
"Laharpur","India",55911,,,27.7083,80.9026,false,
"Narwana","India",55850,,,29.599,76.1193,false,
"Islampur","India",55691,,,26.2654,88.1898,false,
"Karad","India",55663,,,17.2894,74.1818,false,
"Jalaun","India",55299,,,26.1451,79.3366,false,
"Karimganj","India",55290,,,24.8692,92.3554,false,
"Mokameh","India",55203,,,25.3966,85.9219,false,
"Etawa","India",55185,,,24.1835,78.2029,false,
"Wanparti","India",55182,,,16.3674,78.0689,false,
"Samalkot","India",55097,,,17.0567,82.1764,false,
"Anjangaon","India",54999,,,21.1652,77.3091,false,
"Dholka","India",54977,,,22.7273,72.4413,false,
"Tirur","India",54934,,,10.9137,75.9212,false,
"Kandi","India",54848,,,23.9595,88.0402,false,
"Ghatal","India",54658,,,22.6624,87.734,false,
"Unjha","India",54620,,,23.8037,72.391,false,
"Sendhwa","India",54530,,,21.6856,75.0962,false,
"Tiruttangal","India",54499,,,9.48333,77.8333,false,
"Siddhapur","India",54313,,,23.9178,72.3721,false,
"Dhuri","India",54302,,,30.3685,75.8679,false,
"Sidhi","India",54242,,,24.4038,81.8795,false,
"Wokha","India",54010,,,26.0972,94.2582,false,
"Kalna","India",53964,,,23.2194,88.363,false,
"Baramati","India",53919,,,18.1517,74.5777,false,
"Kandukur","India",53662,,,15.2154,79.9039,false,
"Sunam","India",53647,,,30.1288,75.7994,false,
"Gaddi Annaram","India",53622,,,17.3669,78.5242,false,
"Sattenapalle","India",53603,,,16.3938,80.1522,false,
"Hiriyur","India",53519,,,13.9445,76.6172,false,
"Challakere","India",53506,,,14.318,76.6516,false,
"Rampur Hat","India",53468,,,24.1774,87.7828,false,
"Masaurhi Buzurg","India",53440,,,25.3542,85.032,false,
"Nuzvid","India",53391,,,16.7885,80.8459,false,
"Shajapur","India",53346,,,23.4264,76.2777,false,
"Puttur","India",53331,,,12.7598,75.2017,false,
"Kasaragod","India",53309,,,12.4984,74.9896,false,
"Ajodhya","India",53293,,,26.7991,82.2047,false,
"Mubarakpur","India",53263,,,26.0887,83.2909,false,
"Phaltan","India",53202,,,17.9911,74.4318,false,
"Sandila","India",53182,,,27.0699,80.515,false,
"Lohardaga","India",53032,,,23.4331,84.6799,false,
"Deolali","India",52958,,,19.944,73.8344,false,
"Shahabad","India",52952,,,17.1307,76.9436,false,
"Bobbili","India",52843,,,18.5737,83.3593,false,
"Chikhli","India",52841,,,20.3505,76.2577,false,
"Konch","India",52773,,,25.9945,79.1513,false,
"Lunglei","India",52728,,,22.8925,92.7422,false,
"Pithapuram","India",52709,,,17.1168,82.2528,false,
"Amalapuram","India",52690,,,16.5787,82.0061,false,
"Tuni","India",52658,,,17.3591,82.5461,false,
"Sihor","India",52603,,,21.7113,71.9618,false,
"Diglur","India",52596,,,18.5483,77.577,false,
"Barbil","India",52586,,,22.1019,85.3775,false,
"Biswan","India",52516,,,27.4958,80.9962,false,
"Kosi","India",52492,,,27.7945,77.4368,false,
"Ropar","India",52313,,,30.969,76.5269,false,
"Dandeli","India",52295,,,15.2667,74.6167,false,
"Parvatipuram","India",52085,,,18.7839,83.4257,false,
"Arcot","India",51943,,,12.9057,79.319,false,
"Jhalawar","India",51884,,,24.5963,76.165,false,
"Petlad","India",51819,,,22.4768,72.7999,false,
"Umred","India",51794,,,20.854,79.3247,false,
"Bhatapara","India",51751,,,21.735,81.9471,false,
"Kaliyaganj","India",51748,,,25.6344,88.3267,false,
"Nasirabad","India",51747,,,26.3047,74.7336,false,
"Idappadi","India",51642,,,11.5862,77.8389,false,
"Gohadi","India",51635,,,26.4328,78.442,false,
"Khagaul","India",51577,,,25.579,85.0456,false,
"Chiplun","India",51437,,,17.5334,73.5094,false,
"Changanacheri","India",51430,,,9.44203,76.536,false,
"Ramnagar","India",51244,,,29.3925,79.1283,false,
"Sillod","India",51042,,,20.303,75.6528,false,
"Macherla","India",51039,,,16.4764,79.4353,false,
"Tundla","India",50939,,,27.2146,78.2368,false,
"Mannarakkat","India",50921,,,10.9922,76.4642,false,
"Goalpara","India",50759,,,26.1767,90.6263,false,
"Kankanhalli","India",50752,,,12.5465,77.4201,false,
"Madhupur","India",50671,,,24.2742,86.6393,false,
"Madhipura","India",50570,,,25.9213,86.7927,false,
"Charkhi Dadri","India",50558,,,28.5917,76.2716,false,
"Dumraon","India",50524,,,25.5527,84.1515,false,
"Mahasamund","India",50441,,,21.1074,82.0948,false,
"Gajraula","India",50380,,,28.8457,78.2396,false,
"Abu Road","India",50262,,,24.4801,72.7819,false,
"Nanjangud","India",50243,,,12.1176,76.684,false,
"Salur","India",50206,,,18.5172,83.2055,false,
"Bhongir","India",50094,,,17.5154,78.8856,false,
"Aonla","India",50011,,,28.274,79.1652,false,
"Khagaria","India",49982,,,25.5022,86.4671,false,
"Dhampur","India",49973,,,29.3088,78.5108,false,
"Sardhana","India",49857,,,29.1455,77.6143,false,
"Didwana","India",49852,,,27.401,74.5754,false,
"Jalor","India",49682,,,25.3456,72.6156,false,
"Rajgarh","India",49583,,,28.642,75.3861,false,
"Barh","India",49557,,,25.4834,85.7093,false,
"Baduria","India",49547,,,22.7443,88.7866,false,
"Shorapur","India",49501,,,16.521,76.7574,false,
"Jugsalai","India",49410,,,22.7767,86.1835,false,
"Kizhake Chalakudi","India",49330,,,10.3007,76.3376,false,
"Sidlaghatta","India",49114,,,13.389,77.8644,false,
"Dahanu","India",49048,,,19.9678,72.7126,false,
"Rasipuram","India",48950,,,11.4601,78.1863,false,
"Punganuru","India",48865,,,13.3667,78.5719,false,
"Mandapeta","India",48852,,,16.8625,81.9292,false,
"Poonamalle","India",48837,,,13.0489,80.1149,false,
"Barpeta","India",48824,,,26.3229,91.0063,false,
"Tamluk","India",48646,,,22.3008,87.9259,false,
"Bhabhua","India",48641,,,25.0405,83.6075,false,
"Kathua","India",48551,,,32.3694,75.5254,false,
"Nangal","India",48497,,,31.3897,76.3757,false,
"Nihtaur","India",48389,,,29.3242,78.3872,false,
"Lachhmangarh Sikar","India",48142,,,27.8229,75.0275,false,
"Tiruvallur","India",48095,,,13.1438,79.9089,false,
"Sri Dungargarh","India",48036,,,28.0962,74.0087,false,
"Raxaul","India",47965,,,26.9798,84.8506,false,
"Siruguppa","India",47917,,,15.63,76.8922,false,
"Baruipur","India",47874,,,22.3525,88.4388,false,
"Mandvi","India",47853,,,22.8328,69.3524,false,
"Majalgaon","India",47845,,,19.1599,76.2083,false,
"Warud","India",47817,,,21.471,78.2697,false,
"Wankaner","India",47814,,,22.612,70.9438,false,
"Churachandpur","India",47774,,,24.3335,93.67,false,
"Dumka","India",47663,,,24.2678,87.2486,false,
"Talegaon Dabhade","India",47653,,,18.735,73.6756,false,
"Hunsur","India",47644,,,12.3036,76.2927,false,
"Pithoragarh","India",47571,,,29.5835,80.2095,false,
"Jangaon","India",47558,,,17.726,79.1524,false,
"Atrauli","India",47512,,,28.0296,78.2857,false,
"Narsimhapur","India",47511,,,22.9494,79.1836,false,
"Mulbagal","India",47462,,,13.1635,78.3935,false,
"Mudhol","India",47427,,,16.3335,75.2831,false,
"Gudalur","India",47419,,,9.67826,77.2495,false,
"Barwani","India",47343,,,22.0323,74.8998,false,
"Punalur","India",47263,,,9.01956,76.9226,false,
"Padrauna","India",47181,,,26.904,83.9809,false,
"Gumia","India",47121,,,23.7975,85.8252,false,
"Bail-Hongal","India",47063,,,15.8137,74.8589,false,
"Shujalpur","India",47058,,,23.4067,76.7098,false,
"Jaisingpur","India",46942,,,16.7764,74.5536,false,
"Chatra","India",46844,,,24.2064,84.8708,false,
"Pachora","India",46823,,,20.6673,75.3531,false,
"Patancheru","India",46821,,,17.5333,78.2645,false,
"Panna","India",46791,,,24.7209,80.1877,false,
"Phalodi","India",46788,,,27.131,72.3683,false,
"Yeola","India",46762,,,20.0424,74.4894,false,
"Sheikhpura","India",46718,,,25.1399,85.841,false,
"Gulaothi","India",46647,,,28.5894,77.7932,false,
"Seohara","India",46546,,,29.209,78.5884,false,
"Zahirabad","India",46504,,,17.6814,77.6074,false,
"Karsiyang","India",46427,,,26.8825,88.2773,false,
"Manglaur","India",46395,,,29.7909,77.8784,false,
"Gangakher","India",46366,,,18.9696,76.7495,false,
"Nohar","India",46360,,,29.1829,74.7706,false,
"Ganj Dundwara","India",46314,,,27.7331,78.9412,false,
"Nanpara","India",46280,,,27.8646,81.5004,false,
"Atarra","India",46168,,,25.2862,80.5715,false,
"Teghra","India",46160,,,25.4904,85.94,false,
"Bhaisa","India",46120,,,19.1129,77.9634,false,
"Dondaicha","India",46018,,,21.3236,74.568,false,
"Vite","India",45973,,,17.2734,74.5379,false,
"Peddapuram","India",45967,,,17.077,82.1384,false,
"Mahmudabad","India",45921,,,27.2919,81.1178,false,
"Pakur","India",45840,,,24.6392,87.8424,false,
"Nayudupet","India",45769,,,13.9074,79.8947,false,
"Halol","India",45741,,,22.5032,73.4724,false,
"Kharar","India",45691,,,30.7463,76.6469,false,
"Bhadrachalam","India",45656,,,17.6685,80.8889,false,
"Rampura","India",45639,,,30.256,75.2412,false,
"Mattanur","India",45521,,,11.9302,75.5715,false,
"Shertallai","India",45474,,,9.68581,76.34,false,
"Sironj","India",45455,,,24.1031,77.6906,false,
"Daund","India",45440,,,18.4652,74.5837,false,
"Parlakimidi","India",45379,,,18.7811,84.0884,false,
"Pujali","India",45379,,,22.4711,88.1453,false,
"Ashta","India",45365,,,23.0175,76.7221,false,
"Nandikotkur","India",45343,,,15.8567,78.2657,false,
"Khalilabad","India",45321,,,26.7727,83.0718,false,
"Chittaranjan","India",45305,,,23.8568,86.9032,false,
"Pathardih","India",45276,,,23.6658,86.4317,false,
"Dungarpur","India",45195,,,23.8431,73.7147,false,
"Mandla","India",45184,,,22.5988,80.3711,false,
"Forbesganj","India",45098,,,26.3025,87.2656,false,
"Harpanahalli","India",44977,,,14.7877,75.9886,false,
"Itanagar","India",44971,,,27.0869,93.6099,false,
"Gumla","India",44951,,,23.0427,84.5443,false,
"Ozar","India",44935,,,20.0947,73.9282,false,
"Bhimunipatnam","India",44843,,,17.8902,83.452,false,
"Tanda","India",44822,,,28.9762,78.9419,false,
"Kapadvanj","India",44764,,,23.023,73.0711,false,
"Thoubal","India",44493,,,24.6388,93.9964,false,
"Morar","India",44451,,,26.2264,78.2248,false,
"Memari","India",44448,,,23.1765,88.0975,false,
"Nellikkuppam","India",44423,,,11.7755,79.6702,false,
"Angul","India",44386,,,20.8409,85.1019,false,
"Medak","India",44351,,,18.0453,78.2608,false,
"Kalpi","India",44339,,,26.1167,79.7333,false,
"Hodal","India",44300,,,27.892,77.3674,false,
"Ramnagar","India",44277,,,25.2691,83.0297,false,
"Arsikere","India",44269,,,13.3145,76.257,false,
"Nidadavole","India",44173,,,16.9057,81.6722,false,
"Jhajjar","India",44122,,,28.6063,76.6565,false,
"Varangaon","India",44067,,,21.0177,75.9104,false,
"Jammalamadugu","India",43870,,,14.8468,78.3831,false,
"Jasdan","India",43861,,,22.0371,71.2079,false,
"Kendraparha","India",43843,,,20.5017,86.4223,false,
"Gobardanga","India",43808,,,22.8774,88.7548,false,
"Yellandu","India",43787,,,17.5906,80.3215,false,
"Merta","India",43758,,,26.6486,74.0341,false,
"Polavaram","India",43710,,,17.2475,81.6437,false,
"Kanuru","India",43696,,,16.2858,81.2546,false,
"Godda","India",43658,,,24.827,87.2125,false,
"Kotputli","India",43651,,,27.7021,76.1991,false,
"Pandhurna","India",43630,,,21.5956,78.5263,false,
"Ramnagar","India",43497,,,27.1637,84.3234,false,
"Dig","India",43486,,,27.4719,77.3256,false,
"Kandhla","India",43387,,,29.321,77.271,false,
"Vikarabad","India",43337,,,17.3381,77.9044,false,
"Varkala","India",43276,,,8.7333,76.7167,false,
"Saint Thomas Mount","India",43223,,,13.0033,80.1961,false,
"Sainthia","India",43221,,,23.9483,87.6805,false,
"Tumsar","India",43218,,,21.3833,79.7333,false,
"Peranampattu","India",43124,,,12.9343,78.7189,false,
"Barhiya","India",43045,,,25.2881,86.0206,false,
"Kalimpong","India",43000,,,27.0706,88.4753,false,
"Ramachandrapuram","India",42977,,,16.8364,82.0287,false,
"Repalle","India",42967,,,16.0184,80.8296,false,
"Selu","India",42879,,,19.4551,76.4407,false,
"Bhinmal","India",42863,,,24.9994,72.2714,false,
"Bowringpet","India",42789,,,12.9912,78.178,false,
"Sivaganga","India",42785,,,9.84701,78.4836,false,
"Tirupparangunram","India",42696,,,9.88151,78.0731,false,
"Shoranur","India",42694,,,10.7618,76.2708,false,
"Bikramganj","India",42626,,,25.2107,84.2551,false,
"Sojat","India",42556,,,25.9249,73.6663,false,
"Khurda","India",42526,,,20.1827,85.6163,false,
"Jaspur","India",42524,,,29.2792,78.828,false,
"Than","India",42508,,,22.5742,71.1994,false,
"Jintur","India",42420,,,19.6119,76.6874,false,
"Khekra","India",42408,,,28.8659,77.2841,false,
"Balapur","India",42401,,,20.6661,76.7739,false,
"Dinhata","India",42381,,,26.1353,89.4613,false,
"Naini Tal","India",42309,,,29.3974,79.4469,false,
"Kyathampalle","India",42275,,,19.6678,78.5289,false,
"Sikandra Rao","India",42229,,,27.6886,78.3799,false,
"Palmaner","India",42179,,,13.2,78.7473,false,
"Jajpur","India",42157,,,20.8485,86.3373,false,
"Canning","India",42132,,,22.3145,88.6625,false,
"Khairabad","India",42125,,,27.527,80.7546,false,
"Kannad","India",42056,,,20.2568,75.1379,false,
"Athni","India",42047,,,16.7261,75.0642,false,
"Biaora","India",41989,,,23.9205,76.9107,false,
"Katol","India",41893,,,21.2739,78.5858,false,
"Arvi","India",41837,,,20.9958,78.2291,false,
"Baghpat","India",41766,,,28.9449,77.2187,false,
"Bar Bigha","India",41758,,,25.2185,85.7332,false,
"Limbdi","India",41740,,,22.5651,71.8108,false,
"Bilara","India",41710,,,26.1807,73.7055,false,
"Sundargarh","India",41705,,,22.1167,84.0333,false,
"Manvi","India",41647,,,15.9913,77.0503,false,
"Fatwa","India",41647,,,25.5096,85.305,false,
"Jambusar","India",41594,,,22.0524,72.8007,false,
"Devakottai","India",41568,,,9.94704,78.8233,false,
"Digras","India",41554,,,20.1035,77.7185,false,
"Warora","India",41523,,,20.2288,79.0028,false,
"Homnabad","India",41485,,,17.7707,77.1252,false,
"Gadarwara","India",41420,,,22.9235,78.7849,false,
"Chidawa","India",41319,,,28.2394,75.6404,false,
"Champa","India",41252,,,22.0353,82.6423,false,
"Naugachhia","India",41247,,,25.3881,87.0991,false,
"Hoskote","India",41236,,,13.0707,77.7981,false,
"Daudnagar","India",41236,,,25.0347,84.4009,false,
"Sihora","India",41192,,,23.4871,80.104,false,
"Jaggayyapeta","India",41180,,,16.8938,80.0981,false,
"Koraput","India",41170,,,18.812,82.7105,false,
"Dhupgari","India",41168,,,26.589,89.0073,false,
"Mehekar","India",41137,,,20.1505,76.5684,false,
"Hilsa","India",41110,,,25.3164,85.2823,false,
"Bharthana","India",41055,,,26.7523,79.2218,false,
"Raisen","India",40977,,,23.3303,77.7811,false,
"Jalarpet","India",40959,,,12.5702,78.5732,false,
"Burla","India",40816,,,21.5098,83.8726,false,
"Dahegam","India",40671,,,23.169,72.8216,false,
"Garhwa","India",40662,,,24.16,83.8075,false,
"Chakradharpur","India",40599,,,22.6761,85.6289,false,
"Ambah","India",40523,,,26.7042,78.2268,false,
"Kallakkurichchi","India",40449,,,11.7404,78.959,false,
"Ghatampur","India",40435,,,26.1527,80.168,false,
"Akividu","India",40413,,,16.5823,81.3811,false,
"Kovvur","India",40379,,,17.0162,81.7293,false,
"Solan","India",40283,,,30.9091,77.1087,false,
"Murtajapur","India",40223,,,20.733,77.3669,false,
"Ahmadpur","India",40218,,,18.7062,76.9373,false,
"Gursahaiganj","India",40214,,,27.1152,79.7317,false,
"Periyakulam","India",40131,,,10.1227,77.5437,false,
"Mapuca","India",40122,,,15.5915,73.809,false,
"Taki","India",40113,,,22.5887,88.9325,false,
"Diamond Harbour","India",40095,,,22.193,88.1847,false,
"Saundatti","India",40091,,,15.7662,75.1178,false,
"Vaijapur","India",40043,,,19.9267,74.7275,false,
"Ghatsila","India",40018,,,22.5853,86.4768,false,
"Hasimara","India",40000,,,26.7469,89.3539,false,
"Sathupalli","India",40000,,,17.2497,80.869,false,
"Puranpur","India",39988,,,28.5128,80.1483,false,
"Haflong","India",39982,,,25.1648,93.0174,false,
"Rameswaram","India",39960,,,9.2885,79.3127,false,
"Bansi","India",39926,,,27.1775,82.9344,false,
"Thiruthani","India",39899,,,13.1759,79.6164,false,
"Mandideep","India",39898,,,23.0817,77.5333,false,
"Thakurdwara","India",39860,,,29.192,78.8615,false,
"Farrukhnagar","India",39766,,,17.0779,78.2034,false,
"Bhavani","India",39744,,,11.4455,77.6822,false,
"Daman","India",39737,,,20.4143,72.8324,false,
"Dhone","India",39689,,,15.3952,77.8715,false,
"Nandura Buzurg","India",39650,,,20.8342,76.4592,false,
"Murshidabad","India",39557,,,24.1839,88.2717,false,
"Nadapuram","India",39512,,,11.6847,75.6549,false,
"Parasia","India",39440,,,22.1913,78.759,false,
"Nathdwara","India",39426,,,24.938,73.8239,false,
"Shahabad","India",39323,,,30.1678,76.8705,false,
"Giddarbaha","India",39243,,,30.1995,74.6663,false,
"Akalkot","India",39226,,,17.5253,76.2061,false,
"Aroor","India",39214,,,9.8694,76.305,false,
"Chinnamanur","India",39213,,,9.83999,77.3811,false,
"Ghosi","India",39138,,,26.1059,83.5393,false,
"Amudalavalasa","India",39124,,,18.4102,83.9029,false,
"Pehowa","India",39101,,,29.979,76.5825,false,
"Nurpur","India",39077,,,29.1496,78.4084,false,
"Aland","India",39064,,,17.5643,76.5685,false,
"Narayanpet","India",39041,,,16.748,77.4954,false,
"Paravur Tekkumbhagam","India",38946,,,8.7947,76.668,false,
"Banka","India",38939,,,24.8809,86.9226,false,
"Simdega","India",38732,,,22.6152,84.5021,false,
"Kondapalle","India",38714,,,16.6199,80.5424,false,
"Sangaria","India",38638,,,29.7989,74.4668,false,
"Jha-Jha","India",38624,,,24.7711,86.3789,false,
"Jalesar","India",38614,,,27.4732,78.3031,false,
"Sirohi","India",38610,,,24.8884,72.8479,false,
"Bhalki","India",38583,,,18.0435,77.206,false,
"Palia Kalan","India",38547,,,28.4321,80.5814,false,
"Talcher","India",38436,,,20.9493,85.2335,false,
"Chaklasi","India",38435,,,22.6532,72.945,false,
"Kunnamangalam","India",38372,,,11.3046,75.8777,false,
"Rajgir","India",38348,,,25.0283,85.4208,false,
"Kumhari","India",38334,,,21.2667,81.5167,false,
"Pathanamthitta","India",38285,,,9.26667,76.7833,false,
"Nandigama","India",38219,,,16.7717,80.286,false,
"Mahe","India",38183,,,11.7017,75.5347,false,
"Vyara","India",38168,,,21.1108,73.3936,false,
"Malavalli","India",38129,,,12.3856,77.0604,false,
"Khambhaliya","India",38121,,,22.2069,69.6503,false,
"Suluru","India",38065,,,13.7,80.0167,false,
"Bhawaniganj","India",38030,,,24.4158,75.8355,false,
"Chetwayi","India",38011,,,10.5288,76.0479,false,
"Vetapalem","India",38007,,,15.785,80.3066,false,
"Shahbazpur","India",38000,,,26.3051,87.2887,false,
"Mahbubabad","India",37949,,,17.5973,80.0021,false,
"Maihar","India",37913,,,24.2659,80.7606,false,
"Dibai","India",37873,,,28.2085,78.2617,false,
"Robertsganj","India",37855,,,24.6886,83.0678,false,
"Kekri","India",37850,,,25.9713,75.1499,false,
"Tarikere","India",37848,,,13.7095,75.8138,false,
"Maudaha","India",37844,,,25.6831,80.1142,false,
"Porsa","India",37824,,,26.6744,78.3708,false,
"Savanur","India",37819,,,14.9733,75.3372,false,
"Pratapgarh","India",37780,,,24.0322,74.7816,false,
"Bilasipara","India",37739,,,26.2328,90.2341,false,
"Channarayapatna","India",37681,,,12.9064,76.3877,false,
"Ellenabad","India",37680,,,29.4528,74.6612,false,
"Pathri","India",37648,,,19.2588,76.4341,false,
"Bhadra","India",37629,,,29.103,75.1714,false,
"Bantval","India",37619,,,12.8905,75.0349,false,
"Kotamangalam","India",37543,,,10.0644,76.6284,false,
"Leh","India",37475,,,34.165,77.584,false,
"Bairagnia","India",37465,,,26.7406,85.2732,false,
"Bangarmau","India",37425,,,26.8912,80.2115,false,
"Paithan","India",37360,,,19.4751,75.3856,false,
"Barauli","India",37302,,,26.3811,84.5865,false,
"Sadaseopet","India",37245,,,17.6192,77.9526,false,
"Vettur","India",37219,,,8.71742,76.7258,false,
"Patti","India",37087,,,31.2809,74.8585,false,
"Garhmuktesar","India",37043,,,28.7873,78.1021,false,
"Revelganj","India",37031,,,25.7898,84.636,false,
"Parola","India",37001,,,20.881,75.1194,false,
"Manapparai","India",36926,,,10.6077,78.4258,false,
"Yanam","India",36896,,,16.7331,82.2136,false,
"Rahuri","India",36885,,,19.3907,74.6498,false,
"Rawatbhata","India",36872,,,24.9298,75.5921,false,
"Hojai","India",36869,,,26.0028,92.856,false,
"Akbarpur","India",36865,,,26.4295,82.5343,false,
"Vuyyuru","India",36755,,,16.3631,80.8441,false,
"Pilibangan","India",36755,,,29.4496,74.1009,false,
"Barwala","India",36694,,,29.3675,75.9081,false,
"Anekal","India",36693,,,12.7111,77.6956,false,
"Kampli","India",36641,,,15.4063,76.6001,false,
"Phulbani","India",36613,,,20.481,84.2306,false,
"Attingal","India",36595,,,8.69609,76.8151,false,
"Cheyyar","India",36527,,,12.6605,79.5431,false,
"Padra","India",36499,,,22.2398,73.0845,false,
"Chunar","India",36459,,,25.1278,82.8821,false,
"Sanawad","India",36455,,,22.1739,76.0699,false,
"Bayana","India",36399,,,26.9079,77.2898,false,
"Kayalpattinam","India",36175,,,8.57143,78.1199,false,
"Dhaka","India",36111,,,26.6748,85.167,false,
"Sadabad","India",36093,,,27.4382,78.0376,false,
"Bindki","India",36058,,,26.0361,80.5762,false,
"Dwarka","India",35837,,,22.2394,68.9678,false,
"Sarangpur","India",35827,,,23.5665,76.4731,false,
"Daryapur","India",35782,,,20.9249,77.3264,false,
"Ramganj Mandi","India",35754,,,24.6465,75.9433,false,
"Gariadhar","India",35692,,,21.5389,71.5774,false,
"Kakrala","India",35690,,,27.8927,79.1945,false,
"Arantangi","India",35621,,,10.1723,78.9912,false,
"Samalkha","India",35620,,,29.2355,77.0127,false,
"Kovur","India",35600,,,14.5005,79.9852,false,
"Tuljapur","India",35596,,,18.008,76.0701,false,
"Morsi","India",35554,,,21.3403,78.0126,false,
"Babina","India",35538,,,25.2395,78.4703,false,
"Dongargarh","India",35508,,,21.1889,80.7546,false,
"Ashta","India",35497,,,16.9494,74.4094,false,
"Igatpuri","India",35461,,,19.6952,73.5626,false,
"Radhanpur","India",35457,,,23.8324,71.6047,false,
"Budhana","India",35442,,,29.288,77.4753,false,
"Lunavada","India",35431,,,23.1284,73.6104,false,
"Betamcherla","India",35417,,,15.4514,78.148,false,
"Rajpipla","India",35392,,,21.8667,73.5,false,
"Barpeta Road","India",35281,,,26.5028,90.9694,false,
"Sherghati","India",35279,,,24.5595,84.7916,false,
"Umarkhed","India",35265,,,19.6014,77.6888,false,
"Waris Aliganj","India",35243,,,25.0172,85.6405,false,
"Pulgaon","India",35238,,,20.722,78.3206,false,
"Kawardha","India",35238,,,22.0085,81.2315,false,
"Buddh Gaya","India",35188,,,24.6981,84.9869,false,
"Lakshmeshwar","India",35140,,,15.1269,75.4694,false,
"Atmakur","India",35137,,,15.8811,78.587,false,
"Seram","India",35134,,,17.1786,77.29,false,
"Niwai","India",35114,,,26.3607,75.9184,false,
"Dubrajpur","India",35087,,,23.7902,87.3765,false,
"Jalalabad","India",35051,,,27.7262,79.6552,false,
"Sanand","India",35033,,,22.9923,72.3818,false,
"Kodaikanal","India",35021,,,10.2393,77.4893,false,
"Chikodi","India",34984,,,16.429,74.5859,false,
"Shahabad","India",34962,,,28.5668,79.0096,false,
"Tasgaon","India",34933,,,17.037,74.6017,false,
"Kodinar","India",34930,,,20.7939,70.7022,false,
"Kichha","India",34904,,,28.9115,79.5201,false,
"Purna","India",34888,,,19.1817,77.0257,false,
"Jamadoba","India",34774,,,23.7167,86.4,false,
"Nabagram","India",34728,,,22.2881,88.5092,false,
"Rajula","India",34652,,,21.0385,71.4435,false,
"Shikarpur","India",34649,,,28.2807,78.0141,false,
"Pipar","India",34630,,,26.3844,73.5439,false,
"Sagauli","India",34622,,,26.7639,84.7434,false,
"Kattivakkam","India",34595,,,13.2167,80.3167,false,
"Karjat","India",34554,,,18.9107,73.3235,false,
"Sankeshwar","India",34549,,,16.2565,74.4819,false,
"Bakhtiyarpur","India",34533,,,25.4618,85.5318,false,
"Agar","India",34532,,,23.7118,76.0157,false,
"Nilanga","India",34491,,,18.1168,76.7528,false,
"Satana","India",34440,,,20.5948,74.203,false,
"Patamundai","India",34400,,,20.5781,86.5606,false,
"Angamali","India",34399,,,10.1905,76.3879,false,
"Golaghat","India",34372,,,26.5117,93.9595,false,
"Manipal","India",34370,,,13.35,74.7833,false,
"Tadepalle","India",34357,,,16.4833,80.6,false,
"Jaito","India",34346,,,30.4513,74.8919,false,
"Gharaunda","India",34307,,,29.5369,76.9714,false,
"Kodungallur","India",34210,,,10.2326,76.1951,false,
"Ausa","India",34161,,,18.2473,76.4993,false,
"Hamirpur","India",34144,,,25.9553,80.1484,false,
"Jhabua","India",34135,,,22.7677,74.5909,false,
"Nawabganj","India",34134,,,28.541,79.6346,false,
"Sinnar","India",34095,,,19.8451,73.9987,false,
"Pen","India",34092,,,18.7373,73.096,false,
"Indi","India",34075,,,17.1773,75.9526,false,
"Pappinissheri","India",34025,,,11.9565,75.3403,false,
"Mokokchung","India",34021,,,26.3248,94.5183,false,
"Sathyamangalam","India",34011,,,11.5053,77.2383,false,
"Fatehpur","India",34010,,,27.1728,81.2106,false,
"Guledagudda","India",33851,,,16.0502,75.79,false,
"Melur","India",33839,,,10.0324,78.3393,false,
"Bhiwadi","India",33831,,,28.2102,76.8606,false,
"Guskhara","India",33780,,,23.4928,87.7348,false,
"Sindgi","India",33770,,,16.9188,76.2337,false,
"Narsipatnam","India",33755,,,17.6671,82.6124,false,
"Ichchapuram","India",33754,,,19.1139,84.6872,false,
"Bahjoi","India",33752,,,28.395,78.6266,false,
"Tuensang","India",33748,,,26.267,94.8242,false,
"Dharangaon","India",33718,,,21.0119,75.2741,false,
"Pulivendla","India",33615,,,14.4214,78.225,false,
"Peddapalli","India",33582,,,18.6136,79.3744,false,
"Madikeri","India",33540,,,12.426,75.7382,false,
"Kopaganj","India",33539,,,26.0192,83.5663,false,
"Kaman","India",33524,,,27.6579,77.2691,false,
"Thana Bhawan","India",33498,,,29.5861,77.4181,false,
"Uravakonda","India",33495,,,14.9435,77.2549,false,
"Begamganj","India",33467,,,23.5992,78.3406,false,
"Darsi","India",33418,,,15.7698,79.6794,false,
"Erattupetta","India",33408,,,9.68747,76.7789,false,
"Nargund","India",33403,,,15.723,75.3867,false,
"Zaidpur","India",33397,,,26.8309,81.3293,false,
"Amli","India",33369,,,20.2833,73.0167,false,
"Sohna","India",33361,,,28.2474,77.0654,false,
"Anupgarh","India",33309,,,29.1911,73.2086,false,
"Jogbani","India",33300,,,26.399,87.2653,false,
"Shikarpur","India",33273,,,14.2698,75.3564,false,
"Shahpura","India",33273,,,27.3912,75.9596,false,
"Kunigal","India",33273,,,13.0232,77.0252,false,
"Kosamba","India",33221,,,21.462,72.9584,false,
"Muhammadabad","India",33186,,,25.6191,83.7558,false,
"Lakhyabad","India",33162,,,23.6667,86.6667,false,
"Jhalrapatan","India",33121,,,24.542,76.1724,false,
"Sirkazhi","India",33100,,,11.2373,79.7358,false,
"Chaksu","India",33098,,,26.6051,75.9481,false,
"Porur","India",33060,,,13.0357,80.1582,false,
"Bhadasar","India",33006,,,28.3146,74.2895,false,
"Wai","India",32957,,,17.9528,73.8906,false,
"Jagatsinghapur","India",32945,,,20.2557,86.1711,false,
"Bagasra","India",32944,,,21.4872,70.9552,false,
"Kadur","India",32935,,,13.5528,76.0116,false,
"Dharmanagar","India",32912,,,24.3667,92.1667,false,
"Lahar","India",32886,,,26.194,78.9414,false,
"Yaval","India",32881,,,21.1677,75.6976,false,
"Kaimganj","India",32858,,,27.5544,79.3353,false,
"Janjgir","India",32833,,,22.0092,82.5778,false,
"Egra","India",32832,,,21.8995,87.5379,false,
"Bihariganj","India",32805,,,25.7341,86.9884,false,
"Umreth","India",32802,,,22.6988,73.1156,false,
"Venkatagiri","India",32761,,,13.96,79.5803,false,
"Mushabani","India",32761,,,22.5114,86.4571,false,
"Mahalingpur","India",32699,,,16.3888,75.1087,false,
"Neem ka Thana","India",32690,,,27.7398,75.7865,false,
"Nepanagar","India",32611,,,21.4538,76.3933,false,
"Nautanwa","India",32587,,,27.4275,83.4179,false,
"Vallabh Vidyanagar","India",32581,,,22.5333,72.9,false,
"Chanderi","India",32549,,,24.7131,78.1381,false,
"Manuguru","India",32539,,,17.981,80.7547,false,
"Mahemdavad","India",32504,,,22.8236,72.7555,false,
"Goribidnur","India",32447,,,13.6107,77.5174,false,
"Almora","India",32442,,,29.5971,79.6591,false,
"Nakodar","India",32405,,,31.1259,75.4751,false,
"Karamsad","India",32380,,,22.5424,72.9039,false,
"Manali","India",32363,,,13.1667,80.2667,false,
"Dharmabad","India",32351,,,18.8912,77.8494,false,
"Vedaraniyam","India",32245,,,10.3721,79.851,false,
"Jayamkondacholapuram","India",32217,,,11.2127,79.3637,false,
"Kalka","India",32205,,,30.8398,76.9407,false,
"Umarga","India",32181,,,17.8384,76.6233,false,
"Pinjaur","India",32162,,,30.7987,76.9182,false,
"Bisauli","India",32154,,,28.3077,78.9368,false,
"Turaiyur","India",32134,,,11.1497,78.5987,false,
"Pavugada","India",32063,,,14.0995,77.2802,false,
"Ambasamudram","India",32020,,,8.71068,77.4519,false,
"Zamania","India",32008,,,25.4196,83.5579,false,
"Malkapur","India",32000,,,17.2621,74.1757,false,
"Shirdi","India",31978,,,19.7662,74.4774,false,
"Bandipura","India",31978,,,34.4173,74.6431,false,
"Kokrajhar","India",31971,,,26.4011,90.2729,false,
"Palladam","India",31935,,,10.9917,77.2863,false,
"Muddebihal","India",31895,,,16.3378,76.1317,false,
"Lalganj","India",31879,,,25.8689,85.1739,false,
"Rasra","India",31876,,,25.8576,83.8549,false,
"Islampur","India",31875,,,25.1408,85.2059,false,
"Ghugus","India",31859,,,19.9381,79.1119,false,
"Sattur","India",31856,,,9.35592,77.9246,false,
"Basudebpur","India",31827,,,21.1197,86.729,false,
"Khachrod","India",31825,,,23.4232,75.2819,false,
"Kotma","India",31756,,,23.2038,81.979,false,
"Bhatkal","India",31735,,,13.9853,74.5553,false,
"Khurai","India",31613,,,24.0437,78.3301,false,
"Chittur","India",31608,,,10.6997,76.7471,false,
"Vadigenhalli","India",31558,,,13.2972,77.8018,false,
"Sijua","India",31537,,,23.7762,86.3303,false,
"Vandavasi","India",31530,,,12.5043,79.6056,false,
"Lalsot","India",31480,,,26.5595,76.3291,false,
"Shahpur","India",31422,,,16.6961,76.8422,false,
"Chemmumiahpet","India",31416,,,15.8979,79.3213,false,
"Bahadurganj","India",31405,,,26.2617,87.8244,false,
"Gomoh","India",31395,,,23.8736,86.1516,false,
"Jalalpur","India",31388,,,26.3116,82.7386,false,
"Khunti","India",31366,,,23.076,85.2782,false,
"Kangayam","India",31364,,,11.006,77.5609,false,
"Zira","India",31350,,,30.9685,74.9911,false,
"Jhanjharpur","India",31283,,,26.2647,86.2799,false,
"Sangola","India",31279,,,17.4395,75.1938,false,
"Singanallur","India",31239,,,10.999,77.0324,false,
"Karamadai","India",31188,,,11.2406,76.9601,false,
"Ramapuram","India",31169,,,13.1009,79.1841,false,
"Nawanshahr","India",31121,,,31.1245,76.1161,false,
"Mankachar","India",31091,,,25.5335,89.8637,false,
"Razampeta","India",31079,,,14.1954,79.159,false,
"Sabalgarh","India",31032,,,26.2492,77.4079,false,
"Hailakandi","India",31031,,,24.6839,92.561,false,
"Jagdispur","India",31029,,,25.4681,84.4194,false,
"Jagdishpur","India",31029,,,26.7497,80.5451,false,
"Sirur","India",31018,,,18.8276,74.3747,false,
"Rawatsar","India",31016,,,29.2672,74.4029,false,
"Shamsabad","India",31009,,,27.0172,78.1236,false,
"Partur","India",30991,,,19.5993,76.2154,false,
"Puttur","India",30986,,,13.4419,79.5531,false,
"Guduvancheri","India",30972,,,12.8452,80.0605,false,
"Erandol","India",30931,,,20.9221,75.3264,false,
"Pasan","India",30928,,,22.8441,82.1982,false,
"Rudarpur","India",30873,,,26.4447,83.613,false,
"Safidon","India",30863,,,29.406,76.6704,false,
"Hatta","India",30854,,,24.1341,79.6012,false,
"Elur","India",30832,,,10.0667,76.2833,false,
"Basavana Bagevadi","India",30827,,,16.5728,75.9725,false,
"Perambalur","India",30799,,,11.2333,78.8833,false,
"Gangtok","India",30700,,,27.3257,88.6122,false,
"Malur","India",30677,,,13.0032,77.938,false,
"Usilampatti","India",30675,,,9.96936,77.7862,false,
"Un","India",30671,,,23.8874,71.7698,false,
"Mudbidri","India",30632,,,13.0665,74.9952,false,
"Rajakhera","India",30627,,,26.898,78.171,false,
"Manwat","India",30624,,,19.3013,76.4974,false,
"Wadi","India",30602,,,17.0518,76.9905,false,
"Anta","India",30598,,,25.15,76.3,false,
"Maharaganj","India",30548,,,27.1446,83.5621,false,
"Tarakeswar","India",30475,,,22.886,88.0136,false,
"Keelakarai","India",30468,,,9.23183,78.7855,false,
"Kakching","India",30418,,,24.4982,93.9813,false,
"Gevrai","India",30406,,,19.2637,75.7501,false,
"Pihani","India",30369,,,27.6199,80.2034,false,
"Perungudi","India",30363,,,12.9609,80.2409,false,
"Sarkhej","India",30341,,,22.983,72.502,false,
"Remuna","India",30319,,,21.528,86.8716,false,
"Sri Madhopur","India",30281,,,27.466,75.5974,false,
"Walajapet","India",30256,,,12.9251,79.3663,false,
"Pedana","India",30252,,,16.2558,81.1438,false,
"Ferokh","India",30229,,,11.1799,75.8414,false,
"Salaya","India",30228,,,22.3104,69.6038,false,
"Musiri","India",30209,,,10.953,78.4443,false,
"Khair","India",30173,,,27.9419,77.8424,false,
"Chitapur","India",30139,,,17.1236,77.0824,false,
"Risod","India",30131,,,19.9767,76.788,false,
"Dhandhuka","India",30049,,,22.3818,71.9866,false,
"Fatehpur Sikri","India",30026,,,27.0937,77.66,false,
"Birpara","India",30000,,,26.7042,89.1455,false,
"Yanamalakuduru","India",30000,,,16.4853,80.6675,false,
"Cherpulassery","India",30000,,,10.8765,76.3093,false,
"Amla","India",29995,,,21.9249,78.1279,false,
"Narsinghgarh","India",29981,,,23.7076,77.0932,false,
"Talaja","India",29948,,,21.3527,72.0352,false,
"Dharmadam","India",29943,,,11.7754,75.4646,false,
"Bhongaon","India",29911,,,27.2551,79.1812,false,
"Tiruchchendur","India",29872,,,8.49725,78.1191,false,
"Sasvad","India",29858,,,18.3435,74.031,false,
"Ambad","India",29846,,,19.613,75.7891,false,
"Ramgarh","India",29834,,,27.251,75.1789,false,
"Jalalabad","India",29824,,,30.6062,74.2573,false,
"Soro","India",29797,,,21.2785,86.6883,false,
"Lingsugur","India",29783,,,16.1588,76.5217,false,
"Gajendragarh","India",29749,,,15.7363,75.9698,false,
"Madurantakam","India",29743,,,12.5117,79.8848,false,
"Umaria","India",29740,,,23.5247,80.8372,false,
"Devarkonda","India",29726,,,16.6919,78.9207,false,
"Dhamnod","India",29681,,,22.2093,75.4706,false,
"Bilari","India",29666,,,28.6215,78.8036,false,
"Muvattupula","India",29664,,,9.98493,76.5773,false,
"Adur","India",29652,,,9.15595,76.7319,false,
"Saoner","India",29638,,,21.3851,78.9215,false,
"Raisinghnagar","India",29626,,,29.5358,73.4492,false,
"Miranpur Katra","India",29626,,,28.0296,79.6678,false,
"Kalpatta","India",29602,,,11.6087,76.0834,false,
"Arangaon","India",29591,,,19.0268,74.7149,false,
"Kalavoor","India",29564,,,9.57046,76.3276,false,
"Mansa","India",29551,,,23.4256,72.6574,false,
"Zunheboto","India",29499,,,25.9667,94.5167,false,
"Mainaguri","India",29459,,,26.5626,88.8204,false,
"Nagar Karnul","India",29439,,,16.4821,78.3247,false,
"Khedbrahma","India",29402,,,24.0299,73.0463,false,
"Taranagar","India",29392,,,28.6686,75.0321,false,
"Palkonda","India",29378,,,18.6037,83.7557,false,
"Dhari","India",29346,,,21.3286,71.0265,false,
"Jewar","India",29316,,,28.122,77.5573,false,
"Kalyandurg","India",29272,,,14.5452,77.1055,false,
"Dighwara","India",29270,,,25.7443,85.01,false,
"Shahpura","India",29259,,,25.6209,74.9249,false,
"Muvattupuzha","India",29246,,,9.97985,76.5738,false,
"Bachhraon","India",29232,,,28.9269,78.2346,false,
"Irinjalakuda","India",29208,,,10.3424,76.2112,false,
"Mangrul Pir","India",29198,,,20.3138,77.3418,false,
"Madukkarai","India",29144,,,10.9057,76.9634,false,
"Islamnagar","India",29144,,,28.329,78.7252,false,
"Ariyalur","India",29144,,,11.1385,79.0756,false,
"Ponmana","India",29139,,,9.00798,76.5202,false,
"Manavadar","India",29105,,,21.4981,70.1377,false,
"Sirsaganj","India",29034,,,27.0571,78.6866,false,
"Sanchor","India",29022,,,24.7536,71.7728,false,
"Sandur","India",29016,,,15.0861,76.5469,false,
"Chodavaram","India",29000,,,17.8288,82.9353,false,
"Surandai","India",28989,,,8.97574,77.4192,false,
"Banda","India",28978,,,24.0449,78.9609,false,
"Piro","India",28967,,,25.3322,84.4045,false,
"Suar","India",28941,,,29.0284,79.0565,false,
"Manoharpur","India",28928,,,27.2977,75.9495,false,
"Rajura","India",28881,,,19.7795,79.3646,false,
"Kotagiri","India",28848,,,11.4207,76.8604,false,
"Rusera","India",28781,,,25.7535,86.026,false,
"Nelamangala","India",28697,,,13.0998,77.3936,false,
"Soron","India",28683,,,27.8906,78.7462,false,
"Mukher","India",28647,,,18.7064,77.368,false,
"Sholinghur","India",28645,,,13.1181,79.4202,false,
"Gadhada","India",28611,,,21.9696,71.5783,false,
"Malpura","India",28600,,,26.2838,75.3646,false,
"Alangulam","India",28558,,,8.86404,77.4994,false,
"Addanki","India",28547,,,15.8106,79.9734,false,
"Milak","India",28505,,,28.6103,79.17,false,
"Coondapoor","India",28491,,,13.6313,74.6902,false,
"Lakheri","India",28463,,,25.6724,76.1769,false,
"Lalgola","India",28442,,,24.4224,88.2524,false,
"Utraula","India",28437,,,27.3193,82.4187,false,
"Titlagarh","India",28405,,,20.2896,83.1523,false,
"Tirukkoyilur","India",28337,,,11.9662,79.2026,false,
"Sonamukhi","India",28334,,,23.3052,87.4134,false,
"Seoni Malwa","India",28334,,,22.4505,77.4665,false,
"Badami","India",28314,,,15.915,75.6768,false,
"Mavoor","India",28313,,,11.2667,75.9167,false,
"Mavelikara","India",28300,,,9.25929,76.5564,false,
"Maur","India",28295,,,30.0833,75.25,false,
"Hole Narsipur","India",28285,,,12.7864,76.2433,false,
"Dhanaura","India",28285,,,28.9591,78.2563,false,
"Piravam","India",28254,,,9.86667,76.5,false,
"Mandi","India",28217,,,31.7119,76.9327,false,
"Shrigonda","India",28208,,,18.6153,74.699,false,
"Pandua","India",28205,,,23.0749,88.2864,false,
"Punch","India",28197,,,33.7703,74.0925,false,
"Pilani","India",28149,,,28.3673,75.6035,false,
"Giddalur","India",28142,,,15.3744,78.9261,false,
"Maddur","India",28141,,,12.5828,77.0429,false,
"Maddagiri","India",28124,,,13.6603,77.2124,false,
"Garhakota","India",28114,,,23.7791,79.1432,false,
"Koynanagar","India",28091,,,17.4,73.7667,false,
"Kumta","India",27999,,,14.4285,74.4189,false,
"Losal","India",27964,,,27.4,74.9167,false,
"Hisua","India",27943,,,24.8336,85.4173,false,
"Dasna","India",27926,,,28.6774,77.5225,false,
"Adirampattinam","India",27909,,,10.3406,79.3791,false,
"Talikota","India",27902,,,16.4731,76.3109,false,
"Maner","India",27901,,,25.646,84.8729,false,
"Birmitrapur","India",27879,,,22.4,84.7667,false,
"Erraguntla","India",27874,,,14.6385,78.5397,false,
"Bamor Kalan","India",27860,,,24.893,78.151,false,
"Kalakkadu","India",27845,,,8.5138,77.5494,false,
"Razam","India",27832,,,18.4491,83.6596,false,
"Kareli","India",27808,,,22.9153,79.0638,false,
"Jalgaon Jamod","India",27794,,,21.0519,76.5346,false,
"Rajaori","India",27792,,,33.3753,74.3092,false,
"Jaswantnagar","India",27777,,,26.8827,78.9026,false,
"Afzalgarh","India",27753,,,29.3937,78.6739,false,
"Byadgi","India",27719,,,14.6733,75.4868,false,
"Rehli","India",27705,,,23.6372,79.0628,false,
"Mungeli","India",27698,,,22.0657,81.6854,false,
"Manawar","India",27637,,,22.2357,75.0892,false,
"Kondagaon","India",27626,,,19.5908,81.664,false,
"Tehri","India",27611,,,30.3909,78.4803,false,
"Umarkot","India",27545,,,19.6653,82.2063,false,
"Nahan","India",27544,,,30.5603,77.2943,false,
"Sankrail","India",27523,,,22.55,88.2252,false,
"Manamadurai","India",27493,,,9.67318,78.471,false,
"Beldanga","India",27489,,,23.9343,88.2602,false,
"Rahatgarh","India",27462,,,23.7897,78.3947,false,
"Pardi","India",27423,,,20.5087,72.9457,false,
"Miranpur","India",27390,,,29.2903,77.9494,false,
"Silvassa","India",27359,,,20.2739,72.9967,false,
"Kalanwali","India",27355,,,29.8357,74.9717,false,
"Chakapara","India",27320,,,22.6322,88.3486,false,
"Kalamb","India",27287,,,19.0444,73.9555,false,
"Hirakud","India",27277,,,21.525,83.8727,false,
"Magadi","India",27213,,,12.9571,77.2237,false,
"Kundarkhi","India",27197,,,28.683,78.7856,false,
"Gundlupet","India",27197,,,11.81,76.6903,false,
"Bilgram","India",27173,,,27.1751,80.032,false,
"Bidhuna","India",27158,,,26.8017,79.5083,false,
"Perumpavur","India",27105,,,10.1154,76.4761,false,
"Berasia","India",27091,,,23.6313,77.4335,false,
"Gobindpur","India",27066,,,22.6339,86.0716,false,
"Kotdwara","India",27009,,,29.7461,78.5222,false,
"Bhawanipur","India",27000,,,26.4535,87.0274,false,
"Rajgarh","India",26953,,,27.2373,76.6224,false,
"Kasba","India",26937,,,25.8564,87.5384,false,
"Naharlagun","India",26912,,,27.1047,93.6952,false,
"Samba","India",26893,,,32.5625,75.1199,false,
"Vepagunta","India",26881,,,17.7784,83.2158,false,
"Kulittalai","India",26822,,,10.9349,78.4125,false,
"Banmankhi","India",26806,,,25.8886,87.1942,false,
"Sheoganj","India",26804,,,25.1392,73.0678,false,
"Indapur","India",26752,,,18.3,73.25,false,
"Kemri","India",26726,,,28.8067,79.2048,false,
"Sausar","India",26704,,,21.6558,78.7967,false,
"Kartarpur","India",26701,,,31.4427,75.4985,false,
"Karhal","India",26693,,,27.0009,78.9393,false,
"Lar","India",26688,,,26.2039,83.9691,false,
"Deulgaon Raja","India",26688,,,20.0176,76.0376,false,
"Mahad","India",26665,,,18.0833,73.4167,false,
"Aliganj","India",26652,,,27.4936,79.1713,false,
"Raver","India",26635,,,21.2476,76.0351,false,
"Panagar","India",26619,,,23.2854,79.9951,false,
"Hangal","India",26604,,,14.7647,75.1246,false,
"Perumbavoor","India",26550,,,10.1069,76.4737,false,
"Ratia","India",26524,,,29.6903,75.5769,false,
"Pauri","India",26514,,,30.1529,78.7771,false,
"Shahganj","India",26510,,,26.0497,82.6842,false,
"Dhrol","India",26496,,,22.567,70.4177,false,
"Pallippatti","India",26492,,,11.9399,78.4016,false,
"Gulabpura","India",26467,,,25.9045,74.6602,false,
"Hadgaon","India",26451,,,19.4955,77.6586,false,
"Gadhinglaj","India",26449,,,16.2229,74.3501,false,
"Rajpur","India",26443,,,22.3039,74.3557,false,
"Terdal","India",26411,,,16.4938,75.0467,false,
"Rangia","India",26388,,,26.4493,91.6136,false,
"Jora","India",26338,,,26.3421,77.8092,false,
"Kheri","India",26327,,,27.9035,80.7975,false,
"Bilsi","India",26320,,,28.1294,78.9109,false,
"Taloda","India",26293,,,21.5613,74.2124,false,
"Polur","India",26290,,,12.5122,79.124,false,
"Kalavad","India",26287,,,22.2079,70.3834,false,
"Rafiganj","India",26228,,,24.8176,84.6345,false,
"Karera","India",26212,,,25.4582,78.1358,false,
"Halvad","India",26205,,,23.0152,71.1803,false,
"Husainabad","India",26184,,,24.5285,84,false,
"Sulur","India",26183,,,11.0243,77.1256,false,
"Kukshi","India",26183,,,22.2068,74.7579,false,
"Elamanchili","India",26176,,,17.5491,82.8575,false,
"Rajgarh","India",26164,,,24.0083,76.7325,false,
"Marhaura","India",26138,,,25.9735,84.868,false,
"Shiggaon","India",26118,,,14.9905,75.225,false,
"Raikot","India",26114,,,30.65,75.6,false,
"Ranavav","India",26011,,,21.6873,69.7449,false,
"Junnar","India",25997,,,19.2082,73.8752,false,
"Kanker","India",25984,,,20.2719,81.4918,false,
"Kinwat","India",25956,,,19.6256,78.1987,false,
"Nagari","India",25933,,,13.3214,79.5856,false,
"Kalol","India",25929,,,22.6078,73.4627,false,
"Chipurupalle","India",25898,,,18.3114,83.5685,false,
"Renigunta","India",25895,,,13.6514,79.5126,false,
"Nalhati","India",25878,,,24.297,87.829,false,
"Gokarna","India",25851,,,14.55,74.3167,false,
"Koregaon","India",25846,,,18.6457,74.0591,false,
"Kandla","India",25845,,,23.0333,70.2167,false,
"Behror","India",25815,,,27.8883,76.2811,false,
"Avanigadda","India",25761,,,16.0215,80.9181,false,
"Srinivaspur","India",25760,,,13.3391,78.2117,false,
"Nongstoin","India",25758,,,25.517,91.2648,false,
"Mussoorie","India",25753,,,30.455,78.0707,false,
"Annigeri","India",25753,,,15.4251,75.4335,false,
"Mahendragarh","India",25728,,,28.2694,76.1525,false,
"Jais","India",25726,,,26.2649,81.5486,false,
"Pawayan","India",25708,,,28.0663,80.1031,false,
"Chhabra","India",25676,,,24.6647,76.8438,false,
"Khajuraho Group of Monuments","India",25662,,,24.8481,79.9335,false,
"Sadri","India",25632,,,25.1856,73.4529,false,
"Jandiala","India",25631,,,31.1593,75.6176,false,
"Uran","India",25598,,,18.8781,72.9392,false,
"Pasighat","India",25581,,,28.0663,95.3268,false,
"Mauganj","India",25537,,,24.6672,81.8734,false,
"Tekkalakote","India",25530,,,15.5344,76.877,false,
"Kallidaikurichi","India",25513,,,8.68591,77.4659,false,
"Colonelganj","India",25503,,,27.1343,81.6987,false,
"Mehndawal","India",25495,,,26.9758,83.1099,false,
"Koelwar","India",25494,,,25.5805,84.7975,false,
"Kagal","India",25479,,,16.577,74.3154,false,
"Bannur","India",25455,,,12.3329,76.862,false,
"Kuttampuzha","India",25436,,,10.1503,76.7354,false,
"Budhlada","India",25431,,,29.928,75.562,false,
"Nileshwar","India",25405,,,12.2595,75.1352,false,
"Karkala","India",25374,,,13.2143,74.9923,false,
"Kadakkavoor","India",25362,,,8.67921,76.7671,false,
"Sundarnagar","India",25338,,,31.5352,76.905,false,
"Banganapalle","India",25325,,,15.3177,78.2267,false,
"Asandh","India",25323,,,29.5212,76.6055,false,
"Hadagalli","India",25311,,,15.0205,75.9318,false,
"Anupshahr","India",25306,,,28.3575,78.2691,false,
"Jalalabad","India",25302,,,29.6185,77.4391,false,
"Lumding Railway Colony","India",25283,,,25.749,93.17,false,
"Songadh","India",25269,,,21.1697,73.5636,false,
"Shamsabad","India",25266,,,27.5371,79.438,false,
"Kithor","India",25262,,,28.8668,77.9386,false,
"Machhlishahr","India",25247,,,25.6856,82.4111,false,
"Baloda Bazar","India",25235,,,21.6568,82.1606,false,
"Devanhalli","India",25228,,,13.2465,77.7118,false,
"Gursarai","India",25191,,,25.6168,79.1805,false,
"Ringas","India",25171,,,27.3636,75.5684,false,
"Arumuganeri","India",25151,,,8.5688,78.0909,false,
"Vayalar","India",25094,,,9.71158,76.3389,false,
"Ahraura","India",25075,,,25.0158,83.0329,false,
"Rampachodavaram","India",25074,,,17.4409,81.7756,false,
"Malakanagiri","India",25054,,,18.3643,81.888,false,
"Kanigiri","India",25045,,,15.4056,79.5069,false,
"Chengannur","India",25043,,,9.31575,76.6151,false,
"Chandauli","India",25035,,,25.258,83.2682,false,
"Dakor","India",25019,,,22.7527,73.1497,false,
"Sandi","India",25008,,,27.2887,79.9519,false,
"Padam","India",25000,,,33.4666,76.8849,false,
"Marayur","India",25000,,,10.2764,77.162,false,
"Kolasib","India",25000,,,24.2239,92.6787,false,
"Shiraguppi","India",25000,,,16.6187,74.7091,false,
"Abu","India",24981,,,24.5937,72.7176,false,
"Sheohar","India",24979,,,26.5139,85.2934,false,
"Kunda","India",24948,,,25.717,81.514,false,
"Deori Khas","India",24934,,,23.3902,79.0163,false,
"Sakleshpur","India",24931,,,12.9412,75.7847,false,
"Bemetara","India",24910,,,21.7156,81.5342,false,
"Bawana","India",24906,,,28.7982,77.0343,false,
"Periyanayakkanpalaiyam","India",24894,,,11.1525,76.9516,false,
"Kanth","India",24883,,,29.0594,78.6295,false,
"Charkhari","India",24881,,,25.403,79.7488,false,
"Mangaldai","India",24871,,,26.4421,92.0305,false,
"Vadnagar","India",24832,,,23.7859,72.6389,false,
"Safipur","India",24801,,,26.7378,80.3435,false,
"Kabrai","India",24771,,,25.4028,79.9997,false,
"Kheda","India",24767,,,22.7522,72.6853,false,
"Ponneri","India",24756,,,13.3387,80.1949,false,
"Talwara","India",24752,,,31.9376,75.8866,false,
"Vadakku Valliyur","India",24749,,,8.38286,77.6122,false,
"Tharad","India",24697,,,24.396,71.6258,false,
"Gauripur","India",24694,,,26.0833,89.9612,false,
"Hosdurga","India",24685,,,13.7963,76.2841,false,
"Tekkali","India",24682,,,18.6057,84.2355,false,
"Pakala","India",24680,,,13.449,79.1149,false,
"Minjur","India",24674,,,13.2795,80.2581,false,
"Naduvannur","India",24648,,,11.4877,75.7751,false,
"Andol","India",24645,,,17.8146,78.0771,false,
"Bijbehara","India",24590,,,33.7938,75.107,false,
"Gorantla","India",24586,,,13.9841,77.7722,false,
"Dataganj","India",24562,,,28.0253,79.4082,false,
"Kailaras","India",24539,,,26.305,77.616,false,
"Chharra","India",24535,,,27.9247,78.401,false,
"Faizpur","India",24534,,,21.1677,75.8601,false,
"Chhota Udepur","India",24517,,,22.304,74.0158,false,
"Jaynagar-Majilpur","India",24510,,,22.1758,88.4178,false,
"Singapur","India",24457,,,17.4698,78.1257,false,
"Sahaspur","India",24452,,,29.1213,78.6227,false,
"Andippatti","India",24448,,,9.99797,77.621,false,
"Kant","India",24430,,,27.8105,79.7918,false,
"Margherita","India",24428,,,27.2848,95.668,false,
"Jamtara","India",24388,,,23.963,86.8028,false,
"Avinashi","India",24327,,,11.193,77.2686,false,
"Iringal","India",24318,,,11.5593,75.6166,false,
"Uttiramerur","India",24315,,,12.6143,79.7575,false,
"Vijapur","India",24297,,,23.5623,72.7485,false,
"Chiknayakanhalli","India",24292,,,13.4161,76.6206,false,
"Krishnarajpet","India",24289,,,12.6662,76.4877,false,
"Anjad","India",24286,,,22.0417,75.0552,false,
"Aron","India",24274,,,24.3811,77.4174,false,
"Narasannapeta","India",24267,,,18.4143,84.0446,false,
"Sitarganj","India",24225,,,28.9293,79.7044,false,
"Nandgaon","India",24209,,,20.3068,74.655,false,
"Kushtagi","India",24180,,,15.7562,76.1911,false,
"Sikandarpur","India",24177,,,26.0433,84.053,false,
"Muhammadabad","India",24146,,,26.034,83.3811,false,
"Kumbalam","India",24143,,,9.9063,76.3113,false,
"Srisailain","India",24142,,,16.0722,78.8682,false,
"Barki Saria","India",24134,,,24.1759,85.8894,false,
"Ayakudi","India",24120,,,10.4499,77.552,false,
"Gangapur","India",24118,,,19.6972,75.0105,false,
"Aluva","India",24108,,,10.1076,76.3516,false,
"Rajaldesar","India",24104,,,28.0285,74.4744,false,
"Hastinapur","India",24093,,,29.1604,78.0076,false,
"Pathardi","India",24091,,,19.1728,75.1742,false,
"Colgong","India",24081,,,25.2633,87.2326,false,
"Chettipalaiyam","India",24080,,,10.9125,77.037,false,
"Manasa","India",24078,,,24.4776,75.141,false,
"Bhachau","India",24044,,,23.2986,70.3428,false,
"Bagepalli","India",24031,,,13.7834,77.7967,false,
"Kotturu","India",24004,,,14.8244,76.22,false,
"Mul","India",23984,,,20.0699,79.6783,false,
"Shrirangapattana","India",23927,,,12.4226,76.6844,false,
"Chengam","India",23904,,,12.3089,78.7914,false,
"Bazpur","India",23900,,,29.153,79.1081,false,
"Mangrol","India",23896,,,25.3306,76.5097,false,
"Sohagpur","India",23849,,,22.7006,78.1952,false,
"Murliganj","India",23843,,,25.8969,86.9958,false,
"Reoti","India",23819,,,25.8509,84.3778,false,
"Fatehganj West","India",23810,,,28.4662,79.3066,false,
"Waraseoni","India",23800,,,21.7618,80.043,false,
"Taramangalam","India",23788,,,11.694,77.9704,false,
"Diu","India",23779,,,20.7141,70.9822,false,
"Manihari","India",23731,,,25.3389,87.62,false,
"Lalganj","India",23728,,,25.9318,81.7048,false,
"Alwaye","India",23703,,,10.1065,76.3548,false,
"Kharakvasla","India",23677,,,18.44,73.7755,false,
"Dhanera","India",23656,,,24.5097,72.0234,false,
"Penugonda","India",23654,,,16.6536,81.7455,false,
"Mariani","India",23640,,,26.6572,94.3153,false,
"Ladwa","India",23565,,,29.9935,77.0456,false,
"Nagar","India",23546,,,27.424,77.0992,false,
"Doraha","India",23545,,,30.7995,76.0236,false,
"Morinda","India",23536,,,30.7901,76.4988,false,
"Duliagaon","India",23528,,,27.3723,95.3075,false,
"Panchla","India",23526,,,22.5366,88.1378,false,
"Nadbai","India",23520,,,27.2229,77.1957,false,
"Jhinjhak","India",23499,,,26.5609,79.7342,false,
"Malpe","India",23496,,,13.3496,74.7039,false,
"Birur","India",23493,,,13.5972,75.9717,false,
"Mandal","India",23478,,,25.4413,74.5698,false,
"Shishgarh","India",23471,,,28.7293,79.3147,false,
"Keshorai Patan","India",23464,,,25.2927,75.9395,false,
"Pawni","India",23450,,,20.7923,79.6364,false,
"Chhatapur","India",23425,,,26.2197,87.0048,false,
"Basni","India",23414,,,27.1723,73.6452,false,
"Khategaon","India",23405,,,22.5957,76.9133,false,
"Ramtek","India",23404,,,21.3956,79.3272,false,
"Savantvadi","India",23384,,,15.9041,73.8219,false,
"Monoharpur","India",23362,,,22.1083,88.0789,false,
"Bagha Purana","India",23360,,,30.6881,75.0984,false,
"Injambakkam","India",23346,,,12.9162,80.2488,false,
"Dinanagar","India",23339,,,32.1366,75.4729,false,
"Soygaon","India",23320,,,20.5961,75.6177,false,
"Nasriganj","India",23286,,,25.0514,84.3284,false,
"Jaleshwar","India",23280,,,21.8018,87.2225,false,
"Bewar","India",23280,,,27.2187,79.2976,false,
"Koothanallur","India",23257,,,10.7199,79.5157,false,
"Pindwara","India",23229,,,24.7975,73.0551,false,
"Navalgund","India",23208,,,15.5588,75.3531,false,
"Khandela","India",23164,,,27.605,75.502,false,
"Chakan","India",23161,,,18.7606,73.8635,false,
"Alot","India",23134,,,23.7634,75.5566,false,
"Dharuhera","India",23132,,,28.2055,76.7969,false,
"Kurduvadi","India",23131,,,18.0934,75.4157,false,
"Chandur","India",23125,,,19.7344,79.1717,false,
"Colachel","India",23095,,,8.17938,77.2582,false,
"Nakur","India",23084,,,29.9196,77.3044,false,
"Shamgarh","India",23075,,,24.1882,75.639,false,
"Kuchaiburi","India",23072,,,22.2668,86.1739,false,
"Darwha","India",23062,,,20.3102,77.7726,false,
"Pipri","India",23047,,,19.7937,75.5352,false,
"Muluppilagadu","India",23030,,,11.7979,75.4511,false,
"Kurinjippadi","India",23017,,,11.5503,79.5907,false,
"Kudligi","India",22975,,,14.905,76.3853,false,
"Vemalwada","India",22920,,,18.4652,78.8689,false,
"Saidpur","India",22904,,,25.5375,83.2238,false,
"Phulpur","India",22886,,,25.549,82.0895,false,
"Kutiatodu","India",22880,,,9.8,76.3333,false,
"Balarampur","India",22847,,,23.0971,86.2229,false,
"Sambhar","India",22828,,,26.9081,75.1914,false,
"Karmala","India",22809,,,18.4077,75.1939,false,
"Vaikam","India",22807,,,9.74858,76.3964,false,
"Raghunathpur","India",22802,,,23.5388,86.6735,false,
"Amarpur","India",22796,,,25.0397,86.9025,false,
"Hinjilikatu","India",22779,,,19.4817,84.7449,false,
"Uttamapalaiyam","India",22778,,,9.80701,77.3272,false,
"Tarana","India",22773,,,23.3338,76.0425,false,
"Pariyapuram","India",22766,,,11.0167,75.8667,false,
"Mukerian","India",22751,,,31.9539,75.6172,false,
"Lathi","India",22745,,,21.7231,71.3884,false,
"Rania","India",22741,,,29.5245,74.8369,false,
"Kalamnuri","India",22708,,,19.6739,77.3115,false,
"Itimadpur","India",22697,,,27.2354,78.1983,false,
"Banswada","India",22665,,,18.3773,77.8801,false,
"Saiha","India",22654,,,22.4918,92.9814,false,
"Cumbum","India",22653,,,15.5817,79.1106,false,
"Matabhanga","India",22642,,,26.342,89.2156,false,
"Vattalkundu","India",22638,,,10.1607,77.7588,false,
"Mahwah","India",22624,,,27.0459,76.9315,false,
"Bissau","India",22620,,,28.2474,75.0767,false,
"Todaraisingh","India",22613,,,26.024,75.4818,false,
"Jashpurnagar","India",22607,,,22.8878,84.1386,false,
"Ron","India",22593,,,15.6994,75.7341,false,
"Baddi","India",22592,,,30.9578,76.7914,false,
"Phillaur","India",22588,,,31.0189,75.7911,false,
"Jamai","India",22587,,,22.1964,78.5919,false,
"Phulera","India",22572,,,26.874,75.2417,false,
"Pukhrayan","India",22555,,,26.2237,79.8374,false,
"Sirsi","India",22549,,,28.6392,78.643,false,
"Todabhim","India",22529,,,26.9167,76.8167,false,
"Tiruppuvanam","India",22517,,,9.82564,78.2579,false,
"Baswa","India",22515,,,27.1495,76.5835,false,
"Curchorem","India",22510,,,15.2635,74.1087,false,
"Tulsipur","India",22486,,,27.5337,82.4165,false,
"Bhander","India",22482,,,25.7358,78.7456,false,
"Vadippatti","India",22441,,,10.0848,77.9611,false,
"Naraura","India",22432,,,28.2015,78.3872,false,
"Maharajgani","India",22430,,,26.1102,84.5036,false,
"Nainpur","India",22336,,,22.43,80.1056,false,
"Ramanayyapeta","India",22323,,,16.9452,82.2385,false,
"Silapathar","India",22307,,,27.5944,94.724,false,
"Balod","India",22275,,,20.7308,81.2058,false,
"Gunupur","India",22264,,,19.0804,83.8088,false,
"Mariahu","India",22248,,,25.604,82.6038,false,
"Purwa","India",22220,,,26.4576,80.774,false,
"Sahawar","India",22201,,,27.796,78.8337,false,
"Sidhauli","India",22193,,,27.282,80.8345,false,
"Mayang Imphal","India",22159,,,24.61,93.8887,false,
"Adra","India",22159,,,23.4967,86.6836,false,
"Muhammadabad","India",22151,,,27.309,79.4325,false,
"Someshwar","India",22137,,,13.4911,75.0665,false,
"Sadalgi","India",22135,,,16.5587,74.5321,false,
"Tinnanur","India",22125,,,13.1145,80.0271,false,
"Kailashahar","India",22120,,,24.332,92.0039,false,
"Beohari","India",22107,,,24.0242,81.3783,false,
"Namagiripettai","India",22098,,,11.4551,78.2682,false,
"Ghoti Budrukh","India",22095,,,19.7164,73.6282,false,
"Siwana","India",22067,,,25.6515,72.4224,false,
"Multai","India",22029,,,21.7746,78.2576,false,
"Bhinga","India",22016,,,27.7028,81.9343,false,
"Fatehabad","India",21957,,,27.0264,78.3027,false,
"Kumher","India",21903,,,27.3166,77.3708,false,
"Nattam","India",21888,,,10.2278,78.2297,false,
"Laungowal","India",21880,,,30.1939,75.6809,false,
"Chandrakona","India",21855,,,22.7333,87.5167,false,
"Farakka","India",21834,,,24.8167,87.9,false,
"Tijara","India",21833,,,27.9341,76.8554,false,
"Silao","India",21828,,,25.0836,85.428,false,
"Mundargi","India",21826,,,15.2068,75.8839,false,
"Kuchera","India",21796,,,26.9875,73.9711,false,
"Paonta Sahib","India",21787,,,30.4367,77.6246,false,
"Lonar","India",21765,,,19.9853,76.5205,false,
"Dattapur","India",21763,,,20.7808,78.1407,false,
"Napasar","India",21750,,,27.9606,73.5591,false,
"Patur","India",21747,,,20.4609,76.9372,false,
"Nagod","India",21732,,,24.5692,80.5881,false,
"Dum Duma","India",21706,,,27.5688,95.5566,false,
"Nilakottai","India",21683,,,10.165,77.8502,false,
"Peravurani","India",21663,,,10.2903,79.2016,false,
"Haliyal","India",21625,,,15.3286,74.7564,false,
"Dalsingh Sarai","India",21611,,,25.6679,85.8364,false,
"Karanpur","India",21604,,,29.8404,73.4552,false,
"Samthar","India",21582,,,25.8435,78.9068,false,
"Banat","India",21580,,,29.4636,77.3548,false,
"Mandalgarh","India",21569,,,25.1941,75.0722,false,
"Muttupet","India",21568,,,10.3951,79.4935,false,
"Sakti","India",21561,,,22.0266,82.9609,false,
"Belur","India",21551,,,13.1656,75.8652,false,
"Gingee","India",21530,,,12.2528,79.4173,false,
"Rapar","India",21507,,,23.5727,70.6472,false,
"Chamba","India",21502,,,32.5553,76.1265,false,
"Maheshwar","India",21500,,,22.1759,75.5872,false,
"Kasrawad","India",21484,,,22.1275,75.611,false,
"Bansdih","India",21457,,,25.8838,84.2183,false,
"Guruvayur","India",21416,,,10.5943,76.0411,false,
"Mhasvad","India",21404,,,17.6336,74.7877,false,
"Jaitaran","India",21403,,,26.2045,73.9368,false,
"Ratanpur","India",21392,,,22.2866,82.1682,false,
"Kurandvad","India",21388,,,16.6832,74.5889,false,
"Alandi","India",21383,,,18.6776,73.8987,false,
"Mandawar","India",21339,,,29.4865,78.1273,false,
"Pallikondai","India",21335,,,12.9052,78.9427,false,
"Akaltara","India",21333,,,22.0246,82.4264,false,
"Bedi","India",21327,,,22.5014,70.0436,false,
